{
  "_source": "ITM topology generator, region=53.7,17.3,54.8,19.5",
  "simulation": {
    "duration_ms": 300000,
    "step_ms": 1,
    "warmup_ms": 5000,
    "hot_start": true,
    "radio": {
      "sf": 8,
      "bw": 62500,
      "cr": 4
    }
  },
  "nodes": [
    {
      "name": "GD_RPT_DIODAK",
      "role": "repeater",
      "lat": 54.2118,
      "lon": 18.7229
    },
    {
      "name": "Witomino_RPT",
      "role": "repeater",
      "lat": 54.4983,
      "lon": 18.5134
    },
    {
      "name": "Medusa_repeater",
      "role": "repeater",
      "lat": 54.5628,
      "lon": 18.4776
    },
    {
      "name": "ELBz_N_ATK10_RPT",
      "role": "repeater",
      "lat": 54.1472,
      "lon": 19.4039
    },
    {
      "name": "Dobrzewino_RPT",
      "role": "repeater",
      "lat": 54.4556,
      "lon": 18.3944
    },
    {
      "name": "GD_Hallera_Xiao_Test",
      "role": "repeater",
      "lat": 54.3888,
      "lon": 18.6225
    },
    {
      "name": "meshgopl_GDA_Oliwa",
      "role": "repeater",
      "lat": 54.4115,
      "lon": 18.5509
    },
    {
      "name": "ChwaszczynoP0lnaRPT",
      "role": "repeater",
      "lat": 54.4582,
      "lon": 18.4305
    },
    {
      "name": "RPT_JANK_01",
      "role": "repeater",
      "lat": 54.294,
      "lon": 18.5694
    },
    {
      "name": "RPT_PRG_04",
      "role": "repeater",
      "lat": 54.2546,
      "lon": 18.631
    },
    {
      "name": "RPT_GRABOWEK_HUGO",
      "role": "repeater",
      "lat": 54.5265,
      "lon": 18.4961
    },
    {
      "name": "SQ2PPJ_Repeater",
      "role": "repeater",
      "lat": 54.5398,
      "lon": 18.4779
    },
    {
      "name": "Bojano_Lesoki_RPT",
      "role": "repeater",
      "lat": 54.4662,
      "lon": 18.4042
    },
    {
      "name": "GKW_ZIARNPOL_RPT",
      "role": "repeater",
      "lat": 53.73,
      "lon": 18.9622
    },
    {
      "name": "GDY_Leszczynki_RPT",
      "role": "repeater",
      "lat": 54.532,
      "lon": 18.4895
    },
    {
      "name": "Ga_Gac_testowy_rpt",
      "role": "repeater",
      "lat": 54.5155,
      "lon": 18.5249
    },
    {
      "name": "Hopowo",
      "role": "repeater",
      "lat": 54.2569,
      "lon": 18.2334
    },
    {
      "name": "Chylonia_Solar_RPT",
      "role": "repeater",
      "lat": 54.5422,
      "lon": 18.4641
    },
    {
      "name": "GDA_DW",
      "role": "repeater",
      "lat": 54.3171,
      "lon": 18.5794
    },
    {
      "name": "BAN06M_V3",
      "role": "repeater",
      "lat": 54.3853,
      "lon": 18.3841
    },
    {
      "name": "GD_MQTT_GW_DS",
      "role": "repeater",
      "lat": 54.4253,
      "lon": 18.4888
    },
    {
      "name": "node",
      "role": "repeater",
      "lat": 54.3323,
      "lon": 18.9396
    },
    {
      "name": "Chwaszczyno_RS",
      "role": "repeater",
      "lat": 54.432,
      "lon": 18.4374
    },
    {
      "name": "WEDOLINKAWwa_RPT",
      "role": "repeater",
      "lat": 54.437,
      "lon": 18.5785
    },
    {
      "name": "GDA_Cedry_Roomtest",
      "role": "repeater",
      "lat": 54.268,
      "lon": 18.8485
    },
    {
      "name": "GD_Cedrowa_RPT_0",
      "role": "repeater",
      "lat": 54.3375,
      "lon": 18.5835
    },
    {
      "name": "RPT_SKOWARCZ",
      "role": "repeater",
      "lat": 54.177,
      "lon": 18.6687
    },
    {
      "name": "GDAMichalin",
      "role": "repeater",
      "lat": 54.2277,
      "lon": 18.2913
    },
    {
      "name": "SOP_DW_RPT",
      "role": "repeater",
      "lat": 54.4523,
      "lon": 18.5515
    },
    {
      "name": "GDYZATOKARPTPV3b",
      "role": "repeater",
      "lat": 54.5506,
      "lon": 18.5378
    },
    {
      "name": "GDYNIA_Wielkokacka_R",
      "role": "repeater",
      "lat": 54.4944,
      "lon": 18.5072
    },
    {
      "name": "AE_Repeater",
      "role": "repeater",
      "lat": 54.3845,
      "lon": 18.6236
    },
    {
      "name": "GD_wieniec",
      "role": "repeater",
      "lat": 54.3386,
      "lon": 18.8942
    },
    {
      "name": "Ga_GAC_Rak",
      "role": "repeater",
      "lat": 54.5155,
      "lon": 18.5248
    },
    {
      "name": "GD_Swibno_rpt",
      "role": "repeater",
      "lat": 54.3292,
      "lon": 18.9335
    },
    {
      "name": "GKW_BAJKOWE_NW_RPT",
      "role": "repeater",
      "lat": 53.7458,
      "lon": 18.9491
    },
    {
      "name": "MIK_DW_RPT",
      "role": "repeater",
      "lat": 54.3359,
      "lon": 18.9645
    },
    {
      "name": "Nowe_Tokary_RPT",
      "role": "repeater",
      "lat": 54.4103,
      "lon": 18.3507
    },
    {
      "name": "RPT_LOST_01",
      "role": "repeater",
      "lat": 54.3382,
      "lon": 18.6004
    },
    {
      "name": "Eg_Osiek_RPT",
      "role": "repeater",
      "lat": 54.1544,
      "lon": 19.4018
    },
    {
      "name": "GDARubinowa",
      "role": "repeater",
      "lat": 54.3262,
      "lon": 18.6298
    },
    {
      "name": "GA_WICZ_RPT_02",
      "role": "repeater",
      "lat": 54.4839,
      "lon": 18.4078
    },
    {
      "name": "ELBz_N_ATK10_RPT_2",
      "role": "repeater",
      "lat": 54.1475,
      "lon": 19.4037
    },
    {
      "name": "GKA_RPT_02_TEST",
      "role": "repeater",
      "lat": 54.3401,
      "lon": 18.201
    },
    {
      "name": "GDA_trjmiasto_room",
      "role": "repeater",
      "lat": 54.351,
      "lon": 18.5875
    },
    {
      "name": "GKW_BAJKOWE_RPT",
      "role": "repeater",
      "lat": 53.7474,
      "lon": 18.948
    },
    {
      "name": "GDY_Spokojna",
      "role": "repeater",
      "lat": 54.4742,
      "lon": 18.5194
    },
    {
      "name": "SQ2PPJ_Repeater_2",
      "role": "repeater",
      "lat": 54.5398,
      "lon": 18.4778
    },
    {
      "name": "GDYNIA_Dziaki_Lene",
      "role": "repeater",
      "lat": 54.5124,
      "lon": 18.5344
    },
    {
      "name": "RPT_BORKOWO",
      "role": "repeater",
      "lat": 54.2956,
      "lon": 18.5898
    },
    {
      "name": "RPT_GD_Suchanino",
      "role": "repeater",
      "lat": 54.3552,
      "lon": 18.6114
    },
    {
      "name": "GDA_Przymorze",
      "role": "repeater",
      "lat": 54.4065,
      "lon": 18.5805
    },
    {
      "name": "ELBp_Omni_RPT",
      "role": "repeater",
      "lat": 54.1496,
      "lon": 19.4327
    },
    {
      "name": "GDA_Skowarcz_V3HPV",
      "role": "repeater",
      "lat": 54.1796,
      "lon": 18.6704
    },
    {
      "name": "RPT_KLODAWA",
      "role": "repeater",
      "lat": 54.2082,
      "lon": 18.5864
    },
    {
      "name": "GKW_SP_RPT",
      "role": "repeater",
      "lat": 53.7368,
      "lon": 18.9344
    },
    {
      "name": "SP2ZIE_Repeater",
      "role": "repeater",
      "lat": 54.5238,
      "lon": 18.5134
    },
    {
      "name": "RTP_GDN_Traugutta_",
      "role": "repeater",
      "lat": 54.3685,
      "lon": 18.6262
    },
    {
      "name": "MIK_DW_RPT_2",
      "role": "repeater",
      "lat": 54.3359,
      "lon": 18.9645
    },
    {
      "name": "GDA_Przymorze_2",
      "role": "repeater",
      "lat": 54.4049,
      "lon": 18.5843
    },
    {
      "name": "GDYNIA_Chwarzno_RPT",
      "role": "repeater",
      "lat": 54.513,
      "lon": 18.5338
    },
    {
      "name": "Eagles_Nest",
      "role": "repeater",
      "lat": 54.2235,
      "lon": 18.1235
    },
    {
      "name": "RPT_PL_GDN_Mobile_2",
      "role": "repeater",
      "lat": 54.3539,
      "lon": 18.5955
    },
    {
      "name": "Suchy_Dwor",
      "role": "repeater",
      "lat": 54.5718,
      "lon": 18.4713
    },
    {
      "name": "GDASK_Osowa_RPT",
      "role": "repeater",
      "lat": 54.432,
      "lon": 18.4673
    },
    {
      "name": "Ryzy_RPT",
      "role": "repeater",
      "lat": 54.3872,
      "lon": 18.6174
    },
    {
      "name": "GKW_KOPERNIKA_II_RPT",
      "role": "repeater",
      "lat": 53.7295,
      "lon": 18.9307
    },
    {
      "name": "Osowa_Repeater",
      "role": "repeater",
      "lat": 54.4346,
      "lon": 18.4669
    },
    {
      "name": "GD_REP_K",
      "role": "repeater",
      "lat": 54.3195,
      "lon": 18.6037
    },
    {
      "name": "RPT_PRG_02",
      "role": "repeater",
      "lat": 54.2623,
      "lon": 18.6131
    },
    {
      "name": "ELBz_GDA_ATK20_RPT",
      "role": "repeater",
      "lat": 54.1473,
      "lon": 19.4035
    },
    {
      "name": "GDYPartyzantw",
      "role": "repeater",
      "lat": 54.5081,
      "lon": 18.5405
    },
    {
      "name": "BAN06MTestXiaoRPT",
      "role": "repeater",
      "lat": 54.3854,
      "lon": 18.3844
    },
    {
      "name": "GDYPartyzantow",
      "role": "repeater",
      "lat": 54.5081,
      "lon": 18.5385
    },
    {
      "name": "RPT_hV4_tx27_b4000_",
      "role": "repeater",
      "lat": 54.276,
      "lon": 18.6833
    },
    {
      "name": "RPT_GDORUNIA",
      "role": "repeater",
      "lat": 54.3271,
      "lon": 18.6398
    },
    {
      "name": "GDANSKSUCHANINO_SM",
      "role": "repeater",
      "lat": 54.3539,
      "lon": 18.6068
    },
    {
      "name": "GKW_RAK_01_RPT_2",
      "role": "repeater",
      "lat": 53.726,
      "lon": 19.005
    },
    {
      "name": "GDA_Przerobka",
      "role": "repeater",
      "lat": 54.3545,
      "lon": 18.6919
    },
    {
      "name": "GKW_TORUNSKA_RPT_DH",
      "role": "repeater",
      "lat": 53.7214,
      "lon": 18.9219
    },
    {
      "name": "GDA_BORKOWO_2_RPT",
      "role": "repeater",
      "lat": 54.2948,
      "lon": 18.6005
    },
    {
      "name": "RPT_WSL_01",
      "role": "repeater",
      "lat": 54.2947,
      "lon": 18.7204
    },
    {
      "name": "RPT_PRG_01",
      "role": "repeater",
      "lat": 54.2704,
      "lon": 18.6265
    },
    {
      "name": "GDYNIA_Witomino_RPT",
      "role": "repeater",
      "lat": 54.498,
      "lon": 18.498
    },
    {
      "name": "Dobrzewino2_DIAM_RPT",
      "role": "repeater",
      "lat": 54.4559,
      "lon": 18.3743
    },
    {
      "name": "RPT_BOROWIEC",
      "role": "repeater",
      "lat": 54.4099,
      "lon": 18.4001
    },
    {
      "name": "SP4EVARPT",
      "role": "repeater",
      "lat": 54.3837,
      "lon": 18.596
    },
    {
      "name": "RTP_GD_K_Uroda_HLS_S",
      "role": "repeater",
      "lat": 54.389,
      "lon": 18.6233
    },
    {
      "name": "GDY_MKackKarwiny",
      "role": "repeater",
      "lat": 54.4752,
      "lon": 18.5061
    },
    {
      "name": "GA_GAC_ROOM",
      "role": "repeater",
      "lat": 54.5155,
      "lon": 18.5248
    },
    {
      "name": "GWE_Dobrzewino2_RPT",
      "role": "repeater",
      "lat": 54.4559,
      "lon": 18.3743
    },
    {
      "name": "GDA_SW_WOJCIECH",
      "role": "repeater",
      "lat": 54.2869,
      "lon": 18.6307
    },
    {
      "name": "RPT_Skowarcz_V4X",
      "role": "repeater",
      "lat": 54.1791,
      "lon": 18.6645
    },
    {
      "name": "GDA__NDZW_B",
      "role": "repeater",
      "lat": 54.3748,
      "lon": 18.5613
    },
    {
      "name": "GD_Jab_01",
      "role": "repeater",
      "lat": 54.331,
      "lon": 18.5644
    },
    {
      "name": "GDA_Karczemki",
      "role": "repeater",
      "lat": 54.352,
      "lon": 18.5076
    },
    {
      "name": "GDYNIA_Izerska_RPT",
      "role": "repeater",
      "lat": 54.4443,
      "lon": 18.4615
    },
    {
      "name": "GKA_PEPOWO_RPT",
      "role": "repeater",
      "lat": 54.3743,
      "lon": 18.3793
    },
    {
      "name": "GKW_REYMONTA_RPT",
      "role": "repeater",
      "lat": 53.7275,
      "lon": 18.9392
    },
    {
      "name": "GKA_Borcz",
      "role": "repeater",
      "lat": 54.2613,
      "lon": 18.2725
    },
    {
      "name": "GD_Swibno_rpt_2",
      "role": "repeater",
      "lat": 54.3298,
      "lon": 18.9334
    },
    {
      "name": "GDA_MORENA_",
      "role": "repeater",
      "lat": 54.3513,
      "lon": 18.5875
    },
    {
      "name": "GWE_Dobrzewino_3_tes",
      "role": "repeater",
      "lat": 54.4558,
      "lon": 18.3742
    },
    {
      "name": "GDY_CENTRUM_RPT",
      "role": "repeater",
      "lat": 54.5159,
      "lon": 18.5384
    },
    {
      "name": "RPT_REKCIN",
      "role": "repeater",
      "lat": 54.2375,
      "lon": 18.5553
    },
    {
      "name": "ELBp_ELBz_ATK10_BRID",
      "role": "repeater",
      "lat": 54.1496,
      "lon": 19.4331
    },
    {
      "name": "RPT_PRG_03",
      "role": "repeater",
      "lat": 54.2627,
      "lon": 18.6302
    }
  ],
  "topology": {
    "links": [
      {
        "from": "ELBp_Omni_RPT",
        "to": "ELBp_ELBz_ATK10_BRID",
        "snr": 74.5,
        "rssi": -45.54,
        "snr_std_dev": 1.0,
        "bidir": true
      },
      {
        "from": "ELBz_N_ATK10_RPT",
        "to": "ELBz_GDA_ATK20_RPT",
        "snr": 73.77,
        "rssi": -46.27,
        "snr_std_dev": 1.0,
        "bidir": true
      },
      {
        "from": "GDA_trjmiasto_room",
        "to": "GDA_MORENA_",
        "snr": 72.35,
        "rssi": -47.69,
        "snr_std_dev": 1.0,
        "bidir": true
      },
      {
        "from": "GDYNIA_Dziaki_Lene",
        "to": "GDYNIA_Chwarzno_RPT",
        "snr": 65.07,
        "rssi": -54.97,
        "snr_std_dev": 1.0,
        "bidir": true
      },
      {
        "from": "GDA_Przymorze",
        "to": "GDA_Przymorze_2",
        "snr": 53.17,
        "rssi": -66.87,
        "snr_std_dev": 1.0,
        "bidir": true
      },
      {
        "from": "RPT_GD_Suchanino",
        "to": "GDANSKSUCHANINO_SM",
        "snr": 52.41,
        "rssi": -67.63,
        "snr_std_dev": 1.0,
        "bidir": true
      },
      {
        "from": "RPT_SKOWARCZ",
        "to": "RPT_Skowarcz_V4X",
        "snr": 51.7,
        "rssi": -68.34,
        "snr_std_dev": 1.0,
        "bidir": true
      },
      {
        "from": "Ryzy_RPT",
        "to": "RTP_GD_K_Uroda_HLS_S",
        "snr": 50.12,
        "rssi": -69.92,
        "snr_std_dev": 1.0,
        "bidir": true
      },
      {
        "from": "GDYNIA_Chwarzno_RPT",
        "to": "GDY_CENTRUM_RPT",
        "snr": 49.98,
        "rssi": -70.06,
        "snr_std_dev": 1.0,
        "bidir": true
      },
      {
        "from": "Witomino_RPT",
        "to": "GDYNIA_Wielkokacka_R",
        "snr": 44.94,
        "rssi": -75.1,
        "snr_std_dev": 0.5,
        "bidir": true
      },
      {
        "from": "GDYNIA_Chwarzno_RPT",
        "to": "GDYPartyzantow",
        "snr": 35.31,
        "rssi": -84.73,
        "snr_std_dev": 0.5,
        "bidir": true
      },
      {
        "from": "RPT_BORKOWO",
        "to": "GDA_BORKOWO_2_RPT",
        "snr": 18.35,
        "rssi": -101.69,
        "snr_std_dev": 0.5,
        "bidir": true
      },
      {
        "from": "Eg_Osiek_RPT",
        "to": "ELBz_N_ATK10_RPT_2",
        "snr": 39.78,
        "rssi": -80.26,
        "snr_std_dev": 0.5,
        "bidir": true
      },
      {
        "from": "GA_GAC_ROOM",
        "to": "GDY_CENTRUM_RPT",
        "snr": 14.29,
        "rssi": -105.75,
        "snr_std_dev": 0.5,
        "bidir": true
      },
      {
        "from": "GKW_KOPERNIKA_II_RPT",
        "to": "GKW_TORUNSKA_RPT_DH",
        "snr": 36.15,
        "rssi": -83.89,
        "snr_std_dev": 0.5,
        "bidir": true
      },
      {
        "from": "BAN06M_V3",
        "to": "GKA_PEPOWO_RPT",
        "snr": 32.25,
        "rssi": -87.79,
        "snr_std_dev": 0.5,
        "bidir": true
      },
      {
        "from": "GD_Cedrowa_RPT_0",
        "to": "GD_Jab_01",
        "snr": 32.92,
        "rssi": -87.12,
        "snr_std_dev": 0.5,
        "bidir": true
      },
      {
        "from": "GKW_BAJKOWE_RPT",
        "to": "GKW_SP_RPT",
        "snr": 35.32,
        "rssi": -84.72,
        "snr_std_dev": 0.5,
        "bidir": true
      },
      {
        "from": "GKW_ZIARNPOL_RPT",
        "to": "GKW_REYMONTA_RPT",
        "snr": 28.34,
        "rssi": -91.7,
        "snr_std_dev": 0.5,
        "bidir": true
      },
      {
        "from": "GDA_DW",
        "to": "GD_REP_K",
        "snr": 25.77,
        "rssi": -94.27,
        "snr_std_dev": 0.5,
        "bidir": true
      },
      {
        "from": "node",
        "to": "MIK_DW_RPT",
        "snr": 33.69,
        "rssi": -86.35,
        "snr_std_dev": 0.5,
        "bidir": true
      },
      {
        "from": "RPT_LOST_01",
        "to": "RPT_PL_GDN_Mobile_2",
        "snr": 14.05,
        "rssi": -105.99,
        "snr_std_dev": 0.5,
        "bidir": true
      },
      {
        "from": "AE_Repeater",
        "to": "RTP_GDN_Traugutta_",
        "snr": 36.17,
        "rssi": -83.88,
        "snr_std_dev": 0.5,
        "bidir": true
      },
      {
        "from": "GDY_Leszczynki_RPT",
        "to": "SP2ZIE_Repeater",
        "snr": 14.31,
        "rssi": -105.73,
        "snr_std_dev": 0.5,
        "bidir": true
      },
      {
        "from": "GD_Hallera_Xiao_Test",
        "to": "SP4EVARPT",
        "snr": 27.06,
        "rssi": -92.98,
        "snr_std_dev": 0.5,
        "bidir": true
      },
      {
        "from": "ELBz_N_ATK10_RPT_2",
        "to": "ELBp_Omni_RPT",
        "snr": 28.77,
        "rssi": -91.27,
        "snr_std_dev": 0.5,
        "bidir": true
      },
      {
        "from": "GD_Cedrowa_RPT_0",
        "to": "RPT_PL_GDN_Mobile_2",
        "snr": 29.79,
        "rssi": -90.25,
        "snr_std_dev": 0.5,
        "bidir": true
      },
      {
        "from": "GKW_ZIARNPOL_RPT",
        "to": "GKW_BAJKOWE_RPT",
        "snr": 31.25,
        "rssi": -88.79,
        "snr_std_dev": 0.5,
        "bidir": true
      },
      {
        "from": "GKW_BAJKOWE_NW_RPT",
        "to": "GKW_KOPERNIKA_II_RPT",
        "snr": 22.01,
        "rssi": -98.03,
        "snr_std_dev": 0.5,
        "bidir": true
      },
      {
        "from": "Bojano_Lesoki_RPT",
        "to": "Dobrzewino2_DIAM_RPT",
        "snr": 27.62,
        "rssi": -92.43,
        "snr_std_dev": 0.5,
        "bidir": true
      },
      {
        "from": "WEDOLINKAWwa_RPT",
        "to": "SOP_DW_RPT",
        "snr": 35.08,
        "rssi": -84.97,
        "snr_std_dev": 0.5,
        "bidir": true
      },
      {
        "from": "Medusa_repeater",
        "to": "SQ2PPJ_Repeater",
        "snr": 34.66,
        "rssi": -85.38,
        "snr_std_dev": 0.5,
        "bidir": true
      },
      {
        "from": "Hopowo",
        "to": "GKA_Borcz",
        "snr": 26.89,
        "rssi": -93.15,
        "snr_std_dev": 0.5,
        "bidir": true
      },
      {
        "from": "Witomino_RPT",
        "to": "GDY_MKackKarwiny",
        "snr": 23.44,
        "rssi": -96.61,
        "snr_std_dev": 0.5,
        "bidir": true
      },
      {
        "from": "RPT_GRABOWEK_HUGO",
        "to": "Chylonia_Solar_RPT",
        "snr": 30.15,
        "rssi": -89.89,
        "snr_std_dev": 0.5,
        "bidir": true
      },
      {
        "from": "GD_wieniec",
        "to": "GD_Swibno_rpt",
        "snr": 28.68,
        "rssi": -91.36,
        "snr_std_dev": 0.5,
        "bidir": true
      },
      {
        "from": "RPT_LOST_01",
        "to": "RPT_GDORUNIA",
        "snr": 8.94,
        "rssi": -111.1,
        "snr_std_dev": 0.5,
        "bidir": true
      },
      {
        "from": "SQ2PPJ_Repeater",
        "to": "SP2ZIE_Repeater",
        "snr": 33.57,
        "rssi": -86.47,
        "snr_std_dev": 0.5,
        "bidir": true
      },
      {
        "from": "SQ2PPJ_Repeater_2",
        "to": "SP2ZIE_Repeater",
        "snr": 33.55,
        "rssi": -86.49,
        "snr_std_dev": 0.5,
        "bidir": true
      },
      {
        "from": "GDY_Spokojna",
        "to": "GDYNIA_Witomino_RPT",
        "snr": 15.66,
        "rssi": -104.38,
        "snr_std_dev": 0.5,
        "bidir": true
      },
      {
        "from": "WEDOLINKAWwa_RPT",
        "to": "GDA_Przymorze",
        "snr": 20.87,
        "rssi": -99.17,
        "snr_std_dev": 0.5,
        "bidir": true
      },
      {
        "from": "GD_MQTT_GW_DS",
        "to": "Chwaszczyno_RS",
        "snr": 13.09,
        "rssi": -106.95,
        "snr_std_dev": 0.5,
        "bidir": true
      },
      {
        "from": "ChwaszczynoP0lnaRPT",
        "to": "Dobrzewino2_DIAM_RPT",
        "snr": 26.29,
        "rssi": -93.75,
        "snr_std_dev": 0.5,
        "bidir": true
      },
      {
        "from": "GA_WICZ_RPT_02",
        "to": "Dobrzewino2_DIAM_RPT",
        "snr": 26.6,
        "rssi": -93.45,
        "snr_std_dev": 0.5,
        "bidir": true
      },
      {
        "from": "RPT_GD_Suchanino",
        "to": "GDA__NDZW_B",
        "snr": 13.68,
        "rssi": -106.36,
        "snr_std_dev": 0.5,
        "bidir": true
      },
      {
        "from": "RPT_PRG_04",
        "to": "RPT_hV4_tx27_b4000_",
        "snr": 22.35,
        "rssi": -97.69,
        "snr_std_dev": 0.5,
        "bidir": true
      },
      {
        "from": "GKW_BAJKOWE_NW_RPT",
        "to": "GKW_RAK_01_RPT_2",
        "snr": 22.66,
        "rssi": -97.38,
        "snr_std_dev": 0.5,
        "bidir": true
      },
      {
        "from": "Nowe_Tokary_RPT",
        "to": "GKA_PEPOWO_RPT",
        "snr": 13.49,
        "rssi": -106.55,
        "snr_std_dev": 0.5,
        "bidir": true
      },
      {
        "from": "Dobrzewino_RPT",
        "to": "GDYNIA_Izerska_RPT",
        "snr": 12.38,
        "rssi": -107.66,
        "snr_std_dev": 0.5,
        "bidir": true
      },
      {
        "from": "GDYZATOKARPTPV3b",
        "to": "GDYPartyzantw",
        "snr": 26.76,
        "rssi": -93.28,
        "snr_std_dev": 0.5,
        "bidir": true
      },
      {
        "from": "meshgopl_GDA_Oliwa",
        "to": "Ryzy_RPT",
        "snr": 28.69,
        "rssi": -91.35,
        "snr_std_dev": 0.5,
        "bidir": true
      },
      {
        "from": "GDARubinowa",
        "to": "GDA_Przerobka",
        "snr": 24.43,
        "rssi": -95.61,
        "snr_std_dev": 0.5,
        "bidir": true
      },
      {
        "from": "Osowa_Repeater",
        "to": "RPT_BOROWIEC",
        "snr": 17.5,
        "rssi": -102.54,
        "snr_std_dev": 0.5,
        "bidir": true
      },
      {
        "from": "RPT_BOROWIEC",
        "to": "GDYNIA_Izerska_RPT",
        "snr": 19.49,
        "rssi": -100.55,
        "snr_std_dev": 0.5,
        "bidir": true
      },
      {
        "from": "Medusa_repeater",
        "to": "Ga_Gac_testowy_rpt",
        "snr": 27.14,
        "rssi": -92.9,
        "snr_std_dev": 0.5,
        "bidir": true
      },
      {
        "from": "GDASK_Osowa_RPT",
        "to": "GWE_Dobrzewino_3_tes",
        "snr": 20.54,
        "rssi": -99.5,
        "snr_std_dev": 0.5,
        "bidir": true
      },
      {
        "from": "RPT_WSL_01",
        "to": "RPT_PRG_01",
        "snr": 24.27,
        "rssi": -95.77,
        "snr_std_dev": 0.5,
        "bidir": true
      },
      {
        "from": "RPT_JANK_01",
        "to": "GDANSKSUCHANINO_SM",
        "snr": 21.39,
        "rssi": -98.65,
        "snr_std_dev": 0.5,
        "bidir": true
      },
      {
        "from": "Ga_GAC_Rak",
        "to": "Suchy_Dwor",
        "snr": 6.92,
        "rssi": -113.12,
        "snr_std_dev": 0.5,
        "bidir": true
      },
      {
        "from": "Medusa_repeater",
        "to": "GDYPartyzantw",
        "snr": 25.3,
        "rssi": -94.74,
        "snr_std_dev": 0.5,
        "bidir": true
      },
      {
        "from": "RPT_KLODAWA",
        "to": "RPT_PRG_01",
        "snr": 18.91,
        "rssi": -101.13,
        "snr_std_dev": 0.5,
        "bidir": true
      },
      {
        "from": "Osowa_Repeater",
        "to": "BAN06MTestXiaoRPT",
        "snr": 22.94,
        "rssi": -97.11,
        "snr_std_dev": 0.5,
        "bidir": true
      },
      {
        "from": "GDA_BORKOWO_2_RPT",
        "to": "RPT_WSL_01",
        "snr": 21.93,
        "rssi": -98.11,
        "snr_std_dev": 0.5,
        "bidir": true
      },
      {
        "from": "BAN06MTestXiaoRPT",
        "to": "GWE_Dobrzewino2_RPT",
        "snr": 16.72,
        "rssi": -103.32,
        "snr_std_dev": 0.5,
        "bidir": true
      },
      {
        "from": "BAN06M_V3",
        "to": "GDA_Karczemki",
        "snr": 19.82,
        "rssi": -100.22,
        "snr_std_dev": 0.5,
        "bidir": true
      },
      {
        "from": "RPT_PRG_02",
        "to": "RPT_Skowarcz_V4X",
        "snr": 18.56,
        "rssi": -101.48,
        "snr_std_dev": 0.5,
        "bidir": true
      },
      {
        "from": "GDA_Skowarcz_V3HPV",
        "to": "RPT_REKCIN",
        "snr": 14.86,
        "rssi": -105.18,
        "snr_std_dev": 0.5,
        "bidir": true
      },
      {
        "from": "GD_RPT_DIODAK",
        "to": "GDA_SW_WOJCIECH",
        "snr": 22.58,
        "rssi": -97.46,
        "snr_std_dev": 0.5,
        "bidir": true
      },
      {
        "from": "Eagles_Nest",
        "to": "GKA_Borcz",
        "snr": 19.53,
        "rssi": -100.51,
        "snr_std_dev": 0.5,
        "bidir": true
      },
      {
        "from": "GDAMichalin",
        "to": "Eagles_Nest",
        "snr": 22.06,
        "rssi": -97.99,
        "snr_std_dev": 0.5,
        "bidir": true
      },
      {
        "from": "GKA_RPT_02_TEST",
        "to": "Eagles_Nest",
        "snr": 17.85,
        "rssi": -102.19,
        "snr_std_dev": 0.5,
        "bidir": true
      },
      {
        "from": "Ga_Gac_testowy_rpt",
        "to": "RTP_GDN_Traugutta_",
        "snr": 14.45,
        "rssi": -105.6,
        "snr_std_dev": 0.5,
        "bidir": true
      },
      {
        "from": "RPT_JANK_01",
        "to": "GDA_Cedry_Roomtest",
        "snr": 12.73,
        "rssi": -107.31,
        "snr_std_dev": 0.5,
        "bidir": true
      },
      {
        "from": "GD_wieniec",
        "to": "RPT_PRG_02",
        "snr": -2.45,
        "rssi": -122.49,
        "snr_std_dev": 0.5,
        "loss": 0.0551,
        "bidir": true
      },
      {
        "from": "GD_Swibno_rpt_2",
        "to": "RPT_PRG_03",
        "snr": 6.77,
        "rssi": -113.28,
        "snr_std_dev": 0.5,
        "bidir": true
      },
      {
        "from": "MIK_DW_RPT_2",
        "to": "GD_Jab_01",
        "snr": 8.8,
        "rssi": -111.24,
        "snr_std_dev": 0.5,
        "bidir": true
      }
    ]
  },
  "commands": []
}
