{
  "_source": "ITM topology generator, region=47.0,-123.0,48.0,-121.5",
  "simulation": {
    "duration_ms": 300000,
    "step_ms": 4,
    "warmup_ms": 5000,
    "hot_start": true,
    "radio": {
      "sf": 10,
      "bw": 250000,
      "cr": 1
    }
  },
  "nodes": [
    {
      "name": "HOWL_Repeater",
      "role": "repeater",
      "lat": 47.9829,
      "lon": -122.134
    },
    {
      "name": "The_Skunk_Den",
      "role": "repeater",
      "lat": 47.0368,
      "lon": -122.828
    },
    {
      "name": "Covington_Park",
      "role": "repeater",
      "lat": 47.3857,
      "lon": -122.104
    },
    {
      "name": "Phinney_Solar_Repeat",
      "role": "repeater",
      "lat": 47.6811,
      "lon": -122.352
    },
    {
      "name": "Airhack_Covington_Cl",
      "role": "repeater",
      "lat": 47.3545,
      "lon": -122.12
    },
    {
      "name": "Echo_Lake",
      "role": "repeater",
      "lat": 47.7728,
      "lon": -122.345
    },
    {
      "name": "OMStar",
      "role": "repeater",
      "lat": 47.0415,
      "lon": -122.874
    },
    {
      "name": "GnomeSat_4",
      "role": "repeater",
      "lat": 47.3703,
      "lon": -122.026
    },
    {
      "name": "Airhack_MapleValley",
      "role": "repeater",
      "lat": 47.3638,
      "lon": -122.019
    },
    {
      "name": "Fremont01_KF7EGZ_Sol",
      "role": "repeater",
      "lat": 47.6563,
      "lon": -122.356
    },
    {
      "name": "I5_Beacon_Apts_Solar",
      "role": "repeater",
      "lat": 47.5722,
      "lon": -122.318
    },
    {
      "name": "4AFXRepeater",
      "role": "repeater",
      "lat": 47.5333,
      "lon": -122.28
    },
    {
      "name": "Solar_Repeater_Maule",
      "role": "repeater",
      "lat": 47.1666,
      "lon": -122.331
    },
    {
      "name": "SFF_Repeater",
      "role": "repeater",
      "lat": 47.9165,
      "lon": -121.94
    },
    {
      "name": "SolarXaioAdvanced",
      "role": "repeater",
      "lat": 47.6474,
      "lon": -122.626
    },
    {
      "name": "dmatestbednode0",
      "role": "repeater",
      "lat": 47.6613,
      "lon": -122.313
    },
    {
      "name": "Broadway_Hill_Park",
      "role": "repeater",
      "lat": 47.6231,
      "lon": -122.319
    },
    {
      "name": "Mid_Beacon_Repeater",
      "role": "repeater",
      "lat": 47.5527,
      "lon": -122.309
    },
    {
      "name": "Recalc_or_Die",
      "role": "repeater",
      "lat": 47.6413,
      "lon": -122.124
    },
    {
      "name": "The_Winchester_Repea",
      "role": "repeater",
      "lat": 47.6106,
      "lon": -122.313
    },
    {
      "name": "Hillwood_Minigolf",
      "role": "repeater",
      "lat": 47.772,
      "lon": -122.358
    },
    {
      "name": "Gig_Repeater",
      "role": "repeater",
      "lat": 47.3322,
      "lon": -122.606
    },
    {
      "name": "repeat_offender",
      "role": "repeater",
      "lat": 47.5709,
      "lon": -122.094
    },
    {
      "name": "N7JMVKC7OOUROSEHILLR",
      "role": "repeater",
      "lat": 47.6945,
      "lon": -122.175
    },
    {
      "name": "Duvall_1W_Repeater",
      "role": "repeater",
      "lat": 47.7189,
      "lon": -121.95
    },
    {
      "name": "N7JMVWoodinvilleRP",
      "role": "repeater",
      "lat": 47.7834,
      "lon": -122.133
    },
    {
      "name": "node",
      "role": "repeater",
      "lat": 47.6517,
      "lon": -122.099
    },
    {
      "name": "Muggz_Base_Meadowbro",
      "role": "repeater",
      "lat": 47.7102,
      "lon": -122.291
    },
    {
      "name": "W7BJE_R",
      "role": "repeater",
      "lat": 47.7426,
      "lon": -122.053
    },
    {
      "name": "HOWL_MQTT_V3",
      "role": "repeater",
      "lat": 47.979,
      "lon": -122.13
    },
    {
      "name": "Harms_Way_Repeater",
      "role": "repeater",
      "lat": 47.02,
      "lon": -122.824
    },
    {
      "name": "Steve_",
      "role": "repeater",
      "lat": 47.615,
      "lon": -122.293
    },
    {
      "name": "Manette_Radio",
      "role": "repeater",
      "lat": 47.578,
      "lon": -122.616
    },
    {
      "name": "Freaky_Lil_2",
      "role": "repeater",
      "lat": 47.7869,
      "lon": -122.344
    },
    {
      "name": "BigBadGhost_nRF_Test",
      "role": "repeater",
      "lat": 47.9012,
      "lon": -122.224
    },
    {
      "name": "Hadly_Repeater_V4_So",
      "role": "repeater",
      "lat": 47.3811,
      "lon": -122.309
    },
    {
      "name": "Wauna_Repeater",
      "role": "repeater",
      "lat": 47.3815,
      "lon": -122.662
    },
    {
      "name": "Aurora_Village",
      "role": "repeater",
      "lat": 47.7761,
      "lon": -122.341
    },
    {
      "name": "LFP_Solar_Room",
      "role": "repeater",
      "lat": 47.7529,
      "lon": -122.28
    },
    {
      "name": "MEGATRON",
      "role": "repeater",
      "lat": 47.0556,
      "lon": -122.884
    },
    {
      "name": "FrelardFrelay",
      "role": "repeater",
      "lat": 47.6599,
      "lon": -122.357
    },
    {
      "name": "West_Tiger_Soon",
      "role": "repeater",
      "lat": 47.5088,
      "lon": -121.985
    },
    {
      "name": "Gunnysack",
      "role": "repeater",
      "lat": 47.8646,
      "lon": -122.292
    },
    {
      "name": "Vashon_Temp",
      "role": "repeater",
      "lat": 47.4495,
      "lon": -122.493
    },
    {
      "name": "Upper_Queen_Anne",
      "role": "repeater",
      "lat": 47.6384,
      "lon": -122.357
    },
    {
      "name": "EnduroDriver_Yagi",
      "role": "repeater",
      "lat": 47.704,
      "lon": -122.284
    },
    {
      "name": "The_Castle_Left_Wing",
      "role": "repeater",
      "lat": 47.6675,
      "lon": -122.131
    },
    {
      "name": "NILCore",
      "role": "repeater",
      "lat": 47.0937,
      "lon": -122.78
    },
    {
      "name": "LetsMesh_Test_Node",
      "role": "repeater",
      "lat": 47.6067,
      "lon": -122.326
    },
    {
      "name": "North_Shorewood",
      "role": "repeater",
      "lat": 47.5122,
      "lon": -122.369
    },
    {
      "name": "Station",
      "role": "repeater",
      "lat": 47.482,
      "lon": -122.333
    },
    {
      "name": "VM__Vashon_Heights_R",
      "role": "repeater",
      "lat": 47.4865,
      "lon": -122.467
    },
    {
      "name": "DuckDuckGoose",
      "role": "repeater",
      "lat": 47.6794,
      "lon": -122.341
    },
    {
      "name": "CH_RPTR",
      "role": "repeater",
      "lat": 47.6907,
      "lon": -122.379
    },
    {
      "name": "Esterra_Solar",
      "role": "repeater",
      "lat": 47.6355,
      "lon": -122.136
    },
    {
      "name": "Helios_Repeater",
      "role": "repeater",
      "lat": 47.6469,
      "lon": -122.626
    },
    {
      "name": "SEA_Mercerwood",
      "role": "repeater",
      "lat": 47.5711,
      "lon": -122.206
    },
    {
      "name": "VashonGD1",
      "role": "repeater",
      "lat": 47.4584,
      "lon": -122.478
    },
    {
      "name": "Barbell",
      "role": "repeater",
      "lat": 47.982,
      "lon": -122.211
    },
    {
      "name": "TWT_RepeaterRoom_Ser",
      "role": "repeater",
      "lat": 47.9809,
      "lon": -122.081
    },
    {
      "name": "Airhack_NormandyPark",
      "role": "repeater",
      "lat": 47.438,
      "lon": -122.34
    },
    {
      "name": "Riverside_SenseCap_S",
      "role": "repeater",
      "lat": 47.9884,
      "lon": -122.196
    },
    {
      "name": "OlympiaIndianCreekMq",
      "role": "repeater",
      "lat": 47.0344,
      "lon": -122.872
    },
    {
      "name": "Taco_Tuesday",
      "role": "repeater",
      "lat": 47.6274,
      "lon": -122.326
    },
    {
      "name": "BellevueCERT_Room",
      "role": "repeater",
      "lat": 47.5565,
      "lon": -122.132
    },
    {
      "name": "FI_ROOM",
      "role": "repeater",
      "lat": 47.2235,
      "lon": -122.613
    },
    {
      "name": "TipsyLinkStation",
      "role": "repeater",
      "lat": 47.6792,
      "lon": -122.184
    },
    {
      "name": "Ballard_W7PEA",
      "role": "repeater",
      "lat": 47.6745,
      "lon": -122.374
    },
    {
      "name": "Hillcrest",
      "role": "repeater",
      "lat": 47.99,
      "lon": -122.105
    },
    {
      "name": "Hyper2Server",
      "role": "repeater",
      "lat": 47.7097,
      "lon": -122.28
    },
    {
      "name": "LFP",
      "role": "repeater",
      "lat": 47.7703,
      "lon": -122.291
    },
    {
      "name": "Ragnarok_Repeater",
      "role": "repeater",
      "lat": 47.6459,
      "lon": -122.627
    },
    {
      "name": "KM7EAU_Repeater",
      "role": "repeater",
      "lat": 47.8373,
      "lon": -122.12
    },
    {
      "name": "Dogpeater",
      "role": "repeater",
      "lat": 47.6709,
      "lon": -122.328
    },
    {
      "name": "MapleMesh_Kentwood",
      "role": "repeater",
      "lat": 47.3738,
      "lon": -122.117
    },
    {
      "name": "Diru_Creek",
      "role": "repeater",
      "lat": 47.1504,
      "lon": -122.341
    },
    {
      "name": "NE_Queen_Anne_Rptr",
      "role": "repeater",
      "lat": 47.6366,
      "lon": -122.348
    },
    {
      "name": "Foxpeater_Solar",
      "role": "repeater",
      "lat": 47.5175,
      "lon": -122.577
    },
    {
      "name": "SB_Newport_Hills",
      "role": "repeater",
      "lat": 47.552,
      "lon": -122.179
    },
    {
      "name": "Barkpeater",
      "role": "repeater",
      "lat": 47.5678,
      "lon": -122.314
    },
    {
      "name": "t08n1W",
      "role": "repeater",
      "lat": 47.6617,
      "lon": -122.152
    },
    {
      "name": "W1JDB_RPTR__01",
      "role": "repeater",
      "lat": 47.6367,
      "lon": -122.041
    },
    {
      "name": "Segment7_Repeater",
      "role": "repeater",
      "lat": 47.5882,
      "lon": -122.299
    },
    {
      "name": "WOODS_Rptr",
      "role": "repeater",
      "lat": 47.5047,
      "lon": -122.687
    },
    {
      "name": "W7PEA_Repeater",
      "role": "repeater",
      "lat": 47.6745,
      "lon": -122.374
    },
    {
      "name": "The_Castle_2",
      "role": "repeater",
      "lat": 47.6675,
      "lon": -122.131
    },
    {
      "name": "guerrillaradio",
      "role": "repeater",
      "lat": 47.732,
      "lon": -122.445
    },
    {
      "name": "Husky_Repeater_v4",
      "role": "repeater",
      "lat": 47.1329,
      "lon": -122.293
    },
    {
      "name": "Ruckpeater_V4",
      "role": "repeater",
      "lat": 47.3743,
      "lon": -122.115
    },
    {
      "name": "Lafayeti",
      "role": "repeater",
      "lat": 47.5747,
      "lon": -122.311
    },
    {
      "name": "Heltec_TP_Room",
      "role": "repeater",
      "lat": 47.6293,
      "lon": -122.102
    },
    {
      "name": "Auburn_West_Hill",
      "role": "repeater",
      "lat": 47.3482,
      "lon": -122.285
    },
    {
      "name": "Lafayeti_2",
      "role": "repeater",
      "lat": 47.5746,
      "lon": -122.311
    },
    {
      "name": "rePeter_Griffin",
      "role": "repeater",
      "lat": 47.709,
      "lon": -122.28
    },
    {
      "name": "SCCanyonParkRP",
      "role": "repeater",
      "lat": 47.7981,
      "lon": -122.213
    },
    {
      "name": "GC97_Room_Server",
      "role": "repeater",
      "lat": 47.5078,
      "lon": -122.372
    },
    {
      "name": "TWT_Lake_Stevens_Rep",
      "role": "repeater",
      "lat": 47.9797,
      "lon": -122.081
    },
    {
      "name": "n7jmv",
      "role": "repeater",
      "lat": 47.8178,
      "lon": -122.154
    },
    {
      "name": "Squak_Repeater",
      "role": "repeater",
      "lat": 47.4888,
      "lon": -122.06
    },
    {
      "name": "Hellvue_Repeater",
      "role": "repeater",
      "lat": 47.6123,
      "lon": -122.17
    },
    {
      "name": "pxi_nest",
      "role": "repeater",
      "lat": 47.6759,
      "lon": -122.393
    },
    {
      "name": "N7MND_Room",
      "role": "repeater",
      "lat": 47.5844,
      "lon": -121.981
    },
    {
      "name": "First_Hill",
      "role": "repeater",
      "lat": 47.61,
      "lon": -122.325
    },
    {
      "name": "Howl_pyMC_Repeater",
      "role": "repeater",
      "lat": 47.9784,
      "lon": -122.124
    },
    {
      "name": "Tsaro_Rooftop_Solar",
      "role": "repeater",
      "lat": 47.7696,
      "lon": -122.254
    },
    {
      "name": "First_Hill_Skyline",
      "role": "repeater",
      "lat": 47.6064,
      "lon": -122.326
    },
    {
      "name": "The_Castle",
      "role": "repeater",
      "lat": 47.6676,
      "lon": -122.131
    },
    {
      "name": "Central_District",
      "role": "repeater",
      "lat": 47.6129,
      "lon": -122.303
    },
    {
      "name": "K7RRL_Rptr_2",
      "role": "repeater",
      "lat": 47.1269,
      "lon": -122.326
    },
    {
      "name": "Summit__Harrison",
      "role": "repeater",
      "lat": 47.622,
      "lon": -122.325
    },
    {
      "name": "University_Place",
      "role": "repeater",
      "lat": 47.2052,
      "lon": -122.568
    },
    {
      "name": "Edhill",
      "role": "repeater",
      "lat": 47.6929,
      "lon": -122.105
    },
    {
      "name": "K7RRL_Rptr_3",
      "role": "repeater",
      "lat": 47.1269,
      "lon": -122.326
    },
    {
      "name": "N7TOERPTR",
      "role": "repeater",
      "lat": 47.6831,
      "lon": -122.398
    },
    {
      "name": "The_Brewery",
      "role": "repeater",
      "lat": 47.5107,
      "lon": -122.182
    },
    {
      "name": "WD7GT_Repeater_1",
      "role": "repeater",
      "lat": 47.6202,
      "lon": -122.043
    },
    {
      "name": "Skyline_Repeater",
      "role": "repeater",
      "lat": 47.7753,
      "lon": -122.171
    },
    {
      "name": "Kingston_North",
      "role": "repeater",
      "lat": 47.8603,
      "lon": -122.541
    },
    {
      "name": "Bainbridge_Eyrie_Nor",
      "role": "repeater",
      "lat": 47.6344,
      "lon": -122.52
    },
    {
      "name": "Liverpool_Heltec_Rep",
      "role": "repeater",
      "lat": 47.6275,
      "lon": -122.602
    },
    {
      "name": "CPN_Repeater_Kirklan",
      "role": "repeater",
      "lat": 47.6972,
      "lon": -122.17
    },
    {
      "name": "GhostSat_Westlake",
      "role": "repeater",
      "lat": 47.6359,
      "lon": -122.339
    },
    {
      "name": "Blackthorn_Newcastle",
      "role": "repeater",
      "lat": 47.5237,
      "lon": -122.156
    },
    {
      "name": "SoaringEagle_Repeate",
      "role": "repeater",
      "lat": 47.6167,
      "lon": -121.984
    },
    {
      "name": "BDMESHCLAWSW",
      "role": "repeater",
      "lat": 47.1914,
      "lon": -122.013
    },
    {
      "name": "Zam_Karily",
      "role": "repeater",
      "lat": 47.548,
      "lon": -122.051
    },
    {
      "name": "UYH_Room",
      "role": "repeater",
      "lat": 47.5083,
      "lon": -122.366
    },
    {
      "name": "Canterwood_Repeater",
      "role": "repeater",
      "lat": 47.3769,
      "lon": -122.601
    },
    {
      "name": "Cafe_Robby",
      "role": "repeater",
      "lat": 47.4755,
      "lon": -122.165
    },
    {
      "name": "Callow_Shack",
      "role": "repeater",
      "lat": 47.5745,
      "lon": -122.653
    },
    {
      "name": "KG7QIN_R2",
      "role": "repeater",
      "lat": 47.1777,
      "lon": -122.249
    },
    {
      "name": "Liverpool_Heltec_Rep_2",
      "role": "repeater",
      "lat": 47.6275,
      "lon": -122.602
    },
    {
      "name": "PresenceAuburn",
      "role": "repeater",
      "lat": 47.3181,
      "lon": -122.252
    },
    {
      "name": "KG6GXY_Greenwood",
      "role": "repeater",
      "lat": 47.692,
      "lon": -122.366
    },
    {
      "name": "Harstine_Repeater",
      "role": "repeater",
      "lat": 47.2358,
      "lon": -122.886
    },
    {
      "name": "Lost_Lake_Repeater",
      "role": "repeater",
      "lat": 47.8015,
      "lon": -122.04
    },
    {
      "name": "N7JMVJUANITAHIGHRP",
      "role": "repeater",
      "lat": 47.7113,
      "lon": -122.224
    },
    {
      "name": "N_Capitol_Hill_20",
      "role": "repeater",
      "lat": 47.6233,
      "lon": -122.314
    },
    {
      "name": "KCs_Mailbox_hello",
      "role": "repeater",
      "lat": 47.5598,
      "lon": -122.293
    },
    {
      "name": "Boba",
      "role": "repeater",
      "lat": 47.2114,
      "lon": -122.558
    },
    {
      "name": "kiss",
      "role": "repeater",
      "lat": 47.7146,
      "lon": -122.227
    },
    {
      "name": "Magnolia_Hill",
      "role": "repeater",
      "lat": 47.6458,
      "lon": -122.408
    },
    {
      "name": "Calvary_Lutheran",
      "role": "repeater",
      "lat": 47.9834,
      "lon": -122.206
    },
    {
      "name": "Pinelands_on_Highlan",
      "role": "repeater",
      "lat": 47.4689,
      "lon": -122.101
    },
    {
      "name": "Groove_Mesh_2",
      "role": "repeater",
      "lat": 47.8204,
      "lon": -122.307
    },
    {
      "name": "South_Beacon_Hill",
      "role": "repeater",
      "lat": 47.5471,
      "lon": -122.299
    },
    {
      "name": "CID_Station",
      "role": "repeater",
      "lat": 47.5983,
      "lon": -122.328
    },
    {
      "name": "Airhack_South_Tiger_",
      "role": "repeater",
      "lat": 47.4633,
      "lon": -121.963
    },
    {
      "name": "House_of_Brimstone",
      "role": "repeater",
      "lat": 47.6102,
      "lon": -122.369
    },
    {
      "name": "Hankest_Extendus",
      "role": "repeater",
      "lat": 47.6905,
      "lon": -122.28
    },
    {
      "name": "Maya_Repeater",
      "role": "repeater",
      "lat": 47.1746,
      "lon": -122.35
    },
    {
      "name": "W7DKPugetMesh_RCT",
      "role": "repeater",
      "lat": 47.2483,
      "lon": -122.485
    },
    {
      "name": "Red_HTv3_111",
      "role": "repeater",
      "lat": 47.6488,
      "lon": -122.641
    },
    {
      "name": "ShellosLink",
      "role": "repeater",
      "lat": 47.5742,
      "lon": -122.055
    },
    {
      "name": "Covington_Park_2",
      "role": "repeater",
      "lat": 47.3862,
      "lon": -122.103
    },
    {
      "name": "Waterfront",
      "role": "repeater",
      "lat": 47.6103,
      "lon": -122.341
    },
    {
      "name": "Pioneer_Park_Repeate",
      "role": "repeater",
      "lat": 47.5381,
      "lon": -122.215
    },
    {
      "name": "HV4_Repeater",
      "role": "repeater",
      "lat": 47.9636,
      "lon": -122.005
    },
    {
      "name": "SBTr_Repeater",
      "role": "repeater",
      "lat": 47.5364,
      "lon": -122.229
    },
    {
      "name": "BDMESHENUMCLAW",
      "role": "repeater",
      "lat": 47.1978,
      "lon": -121.998
    },
    {
      "name": "University_District",
      "role": "repeater",
      "lat": 47.6687,
      "lon": -122.291
    },
    {
      "name": "Old_Burien_Repeater",
      "role": "repeater",
      "lat": 47.4603,
      "lon": -122.351
    },
    {
      "name": "Emyippener_Yote",
      "role": "repeater",
      "lat": 47.7511,
      "lon": -122.283
    },
    {
      "name": "1st_Hill_South_Repea",
      "role": "repeater",
      "lat": 47.6094,
      "lon": -122.326
    },
    {
      "name": "Hi3_Repeater",
      "role": "repeater",
      "lat": 47.6744,
      "lon": -122.125
    },
    {
      "name": "201EBrem",
      "role": "repeater",
      "lat": 47.6185,
      "lon": -122.624
    },
    {
      "name": "AWGhome",
      "role": "repeater",
      "lat": 47.4975,
      "lon": -122.257
    },
    {
      "name": "OneMeshy",
      "role": "repeater",
      "lat": 47.5863,
      "lon": -122.317
    },
    {
      "name": "ColumbiaSeward",
      "role": "repeater",
      "lat": 47.557,
      "lon": -122.275
    },
    {
      "name": "2CBA_Repeater_v4",
      "role": "repeater",
      "lat": 47.6663,
      "lon": -122.301
    },
    {
      "name": "NoMattBchSEARP",
      "role": "repeater",
      "lat": 47.707,
      "lon": -122.279
    },
    {
      "name": "Forest_Glade",
      "role": "repeater",
      "lat": 47.6361,
      "lon": -122.327
    },
    {
      "name": "SEA_Auburn_Lea_Hill",
      "role": "repeater",
      "lat": 47.3225,
      "lon": -122.176
    },
    {
      "name": "West_Oly",
      "role": "repeater",
      "lat": 47.0581,
      "lon": -122.942
    },
    {
      "name": "VistaParkIssaquahHig",
      "role": "repeater",
      "lat": 47.5465,
      "lon": -122.015
    },
    {
      "name": "RAK4631_Repeater",
      "role": "repeater",
      "lat": 47.746,
      "lon": -122.106
    },
    {
      "name": "rmthecloud_repeater",
      "role": "repeater",
      "lat": 47.6129,
      "lon": -122.303
    },
    {
      "name": "Eastlake_Colonnade",
      "role": "repeater",
      "lat": 47.6355,
      "lon": -122.324
    },
    {
      "name": "Belltown_DuneCat",
      "role": "repeater",
      "lat": 47.6166,
      "lon": -122.349
    },
    {
      "name": "WTacomaPtDefiance",
      "role": "repeater",
      "lat": 47.2981,
      "lon": -122.516
    },
    {
      "name": "Magnolia_W7UUL",
      "role": "repeater",
      "lat": 47.6513,
      "lon": -122.388
    },
    {
      "name": "Lost_Lake_Repeater_V",
      "role": "repeater",
      "lat": 47.8028,
      "lon": -122.043
    },
    {
      "name": "NewmRoom_no_pw",
      "role": "repeater",
      "lat": 47.8608,
      "lon": -122.307
    },
    {
      "name": "Admiral_Junction",
      "role": "repeater",
      "lat": 47.583,
      "lon": -122.387
    },
    {
      "name": "WHITECARkidisgod",
      "role": "repeater",
      "lat": 47.5709,
      "lon": -122.121
    },
    {
      "name": "kidisgodrepeater",
      "role": "repeater",
      "lat": 47.5723,
      "lon": -122.121
    },
    {
      "name": "Juanita_Repeater",
      "role": "repeater",
      "lat": 47.7013,
      "lon": -122.206
    },
    {
      "name": "Kent_East_Hill",
      "role": "repeater",
      "lat": 47.3833,
      "lon": -122.197
    },
    {
      "name": "Rich_Passage",
      "role": "repeater",
      "lat": 47.5958,
      "lon": -122.562
    },
    {
      "name": "West_Renton_Airport",
      "role": "repeater",
      "lat": 47.4905,
      "lon": -122.224
    },
    {
      "name": "NWRTSMACKRPTRBlue",
      "role": "repeater",
      "lat": 47.5018,
      "lon": -122.689
    },
    {
      "name": "BigBad_pyMC_TEST",
      "role": "repeater",
      "lat": 47.9012,
      "lon": -122.224
    },
    {
      "name": "KG7QIN_R5",
      "role": "repeater",
      "lat": 47.1776,
      "lon": -122.249
    },
    {
      "name": "Red4_Novelty_Hill",
      "role": "repeater",
      "lat": 47.6919,
      "lon": -122.036
    },
    {
      "name": "18th__Union",
      "role": "repeater",
      "lat": 47.6134,
      "lon": -122.307
    },
    {
      "name": "WO0Fcom_Greenwood",
      "role": "repeater",
      "lat": 47.7016,
      "lon": -122.354
    },
    {
      "name": "Ravenna_Valley",
      "role": "repeater",
      "lat": 47.6817,
      "lon": -122.302
    },
    {
      "name": "N7JMVClearviewRP",
      "role": "repeater",
      "lat": 47.8373,
      "lon": -122.151
    },
    {
      "name": "207Chico",
      "role": "repeater",
      "lat": 47.6255,
      "lon": -122.709
    },
    {
      "name": "xnopyt",
      "role": "repeater",
      "lat": 47.5429,
      "lon": -122.288
    },
    {
      "name": "Doridian_Base",
      "role": "repeater",
      "lat": 47.6763,
      "lon": -122.203
    },
    {
      "name": "MVARCB",
      "role": "repeater",
      "lat": 47.3243,
      "lon": -122.18
    },
    {
      "name": "North_Seattle_Repeat",
      "role": "repeater",
      "lat": 47.7043,
      "lon": -122.347
    },
    {
      "name": "Hobart_Solar_Test",
      "role": "repeater",
      "lat": 47.4119,
      "lon": -121.989
    },
    {
      "name": "LBP_Repeater",
      "role": "repeater",
      "lat": 47.3025,
      "lon": -122.44
    },
    {
      "name": "George_RPT",
      "role": "repeater",
      "lat": 47.5684,
      "lon": -122.009
    },
    {
      "name": "Kirkland_NE_RAK_1W",
      "role": "repeater",
      "lat": 47.7318,
      "lon": -122.176
    },
    {
      "name": "Westcrest_North",
      "role": "repeater",
      "lat": 47.532,
      "lon": -122.341
    },
    {
      "name": "Viejo",
      "role": "repeater",
      "lat": 47.7776,
      "lon": -122.202
    },
    {
      "name": "SMACK_RAK4631_Repeat",
      "role": "repeater",
      "lat": 47.51,
      "lon": -122.683
    },
    {
      "name": "Rough_House_Repeater",
      "role": "repeater",
      "lat": 47.1154,
      "lon": -122.757
    },
    {
      "name": "HatRAKpeater",
      "role": "repeater",
      "lat": 47.381,
      "lon": -122.212
    },
    {
      "name": "Lucifer",
      "role": "repeater",
      "lat": 47.6131,
      "lon": -122.166
    },
    {
      "name": "RAKpeater_Eastmont",
      "role": "repeater",
      "lat": 47.919,
      "lon": -122.191
    },
    {
      "name": "N7JMVN7IQZRP",
      "role": "repeater",
      "lat": 47.6567,
      "lon": -122.001
    },
    {
      "name": "Shorewood_Heights",
      "role": "repeater",
      "lat": 47.5085,
      "lon": -122.37
    },
    {
      "name": "Hobo_Reptr_2",
      "role": "repeater",
      "lat": 47.1044,
      "lon": -122.79
    },
    {
      "name": "Climb__Bike_Tacoma",
      "role": "repeater",
      "lat": 47.2778,
      "lon": -122.505
    },
    {
      "name": "MarketMadhouse",
      "role": "repeater",
      "lat": 47.6684,
      "lon": -122.382
    },
    {
      "name": "Red_HTv4_114",
      "role": "repeater",
      "lat": 47.6487,
      "lon": -122.641
    },
    {
      "name": "Wedgwood_Solar",
      "role": "repeater",
      "lat": 47.6879,
      "lon": -122.284
    },
    {
      "name": "GB0",
      "role": "repeater",
      "lat": 47.3581,
      "lon": -122.165
    },
    {
      "name": "UP_Center",
      "role": "repeater",
      "lat": 47.2252,
      "lon": -122.54
    },
    {
      "name": "Woofy_Repeater",
      "role": "repeater",
      "lat": 47.5865,
      "lon": -122.312
    },
    {
      "name": "80th_Street_Repeater",
      "role": "repeater",
      "lat": 47.6869,
      "lon": -122.366
    },
    {
      "name": "usa_narrow_bridge",
      "role": "repeater",
      "lat": 47.6617,
      "lon": -122.312
    },
    {
      "name": "Huson_Sol",
      "role": "repeater",
      "lat": 47.2778,
      "lon": -122.504
    },
    {
      "name": "Kaiser_Sose",
      "role": "repeater",
      "lat": 47.0234,
      "lon": -122.981
    },
    {
      "name": "Heron",
      "role": "repeater",
      "lat": 47.5366,
      "lon": -122.223
    },
    {
      "name": "Wax_Myrtle_2_Repeate",
      "role": "repeater",
      "lat": 47.0163,
      "lon": -122.918
    },
    {
      "name": "Union_Art_Coop__YA",
      "role": "repeater",
      "lat": 47.6132,
      "lon": -122.318
    },
    {
      "name": "Cisien_Solar_Room",
      "role": "repeater",
      "lat": 47.7353,
      "lon": -121.969
    },
    {
      "name": "Puyallup_ARESCERT_Ro",
      "role": "repeater",
      "lat": 47.1585,
      "lon": -122.281
    },
    {
      "name": "speakeasty",
      "role": "repeater",
      "lat": 47.7006,
      "lon": -122.024
    },
    {
      "name": "SFF_Repeater_2_2",
      "role": "repeater",
      "lat": 47.9166,
      "lon": -121.939
    },
    {
      "name": "Broadview_Mesh",
      "role": "repeater",
      "lat": 47.7254,
      "lon": -122.357
    },
    {
      "name": "Summit_View_MCRPT",
      "role": "repeater",
      "lat": 47.1341,
      "lon": -122.348
    },
    {
      "name": "The_Underworld",
      "role": "repeater",
      "lat": 47.6073,
      "lon": -122.172
    },
    {
      "name": "BGT",
      "role": "repeater",
      "lat": 47.8646,
      "lon": -122.31
    },
    {
      "name": "Knox_Repeater",
      "role": "repeater",
      "lat": 47.8519,
      "lon": -122.277
    },
    {
      "name": "DBs_Repeater",
      "role": "repeater",
      "lat": 47.621,
      "lon": -122.816
    },
    {
      "name": "STOP_FARTING",
      "role": "repeater",
      "lat": 47.8331,
      "lon": -122.113
    },
    {
      "name": "Yesler_Terrace",
      "role": "repeater",
      "lat": 47.6014,
      "lon": -122.323
    },
    {
      "name": "RPB_Homebase1",
      "role": "repeater",
      "lat": 47.5284,
      "lon": -122.36
    },
    {
      "name": "HobartGoats",
      "role": "repeater",
      "lat": 47.4261,
      "lon": -122.016
    },
    {
      "name": "South_Everett",
      "role": "repeater",
      "lat": 47.9148,
      "lon": -122.188
    },
    {
      "name": "MapleMeshCBay_SW",
      "role": "repeater",
      "lat": 47.358,
      "lon": -122.051
    },
    {
      "name": "Seattle_Center",
      "role": "repeater",
      "lat": 47.6225,
      "lon": -122.352
    },
    {
      "name": "LetsMesh_Test",
      "role": "repeater",
      "lat": 47.6027,
      "lon": -122.331
    },
    {
      "name": "Soon_SEA_Sherwood",
      "role": "repeater",
      "lat": 47.6298,
      "lon": -122.119
    },
    {
      "name": "SW_Mercer_Island",
      "role": "repeater",
      "lat": 47.5341,
      "lon": -122.238
    },
    {
      "name": "WSea_Room",
      "role": "repeater",
      "lat": 47.5625,
      "lon": -122.387
    },
    {
      "name": "Pika_Peak",
      "role": "repeater",
      "lat": 47.5792,
      "lon": -122.312
    },
    {
      "name": "node_2",
      "role": "repeater",
      "lat": 47.5194,
      "lon": -121.882
    },
    {
      "name": "No2MaywoodRPT",
      "role": "repeater",
      "lat": 47.7655,
      "lon": -122.202
    },
    {
      "name": "CVMobile",
      "role": "repeater",
      "lat": 47.6254,
      "lon": -122.708
    },
    {
      "name": "AKYREPEATER01",
      "role": "repeater",
      "lat": 47.5364,
      "lon": -122.612
    },
    {
      "name": "LORDPARKRP",
      "role": "repeater",
      "lat": 47.855,
      "lon": -122.057
    },
    {
      "name": "OverMesh__Repeater",
      "role": "repeater",
      "lat": 47.0395,
      "lon": -122.882
    },
    {
      "name": "Abode_R1_Hicks_Lake_",
      "role": "repeater",
      "lat": 47.0276,
      "lon": -122.808
    },
    {
      "name": "3rdAveS__MainPioSqSE",
      "role": "repeater",
      "lat": 47.6003,
      "lon": -122.33
    },
    {
      "name": "Thorne_Roompeater",
      "role": "repeater",
      "lat": 47.6897,
      "lon": -122.084
    },
    {
      "name": "GYATTACA",
      "role": "repeater",
      "lat": 47.6926,
      "lon": -122.043
    },
    {
      "name": "Monkshood_Repeater",
      "role": "repeater",
      "lat": 47.0654,
      "lon": -122.943
    },
    {
      "name": "River145_RAKPeak_soo",
      "role": "repeater",
      "lat": 47.1642,
      "lon": -122.033
    },
    {
      "name": "Pachipod",
      "role": "repeater",
      "lat": 47.7729,
      "lon": -122.344
    },
    {
      "name": "LQ_Room",
      "role": "repeater",
      "lat": 47.7609,
      "lon": -122.22
    },
    {
      "name": "KJ7SKV_Birdhouse",
      "role": "repeater",
      "lat": 47.3408,
      "lon": -122.09
    },
    {
      "name": "Southcenter",
      "role": "repeater",
      "lat": 47.4556,
      "lon": -122.284
    },
    {
      "name": "Capitol_Hill_Prime",
      "role": "repeater",
      "lat": 47.6161,
      "lon": -122.31
    },
    {
      "name": "SoDo",
      "role": "repeater",
      "lat": 47.5755,
      "lon": -122.321
    },
    {
      "name": "S8NRPTR",
      "role": "repeater",
      "lat": 47.7457,
      "lon": -122.304
    },
    {
      "name": "W6SNX4_Repeater",
      "role": "repeater",
      "lat": 47.6916,
      "lon": -122.184
    },
    {
      "name": "Saybrook_Repeater",
      "role": "repeater",
      "lat": 47.7447,
      "lon": -122.037
    },
    {
      "name": "EnduroDriver_Meadowb",
      "role": "repeater",
      "lat": 47.7042,
      "lon": -122.284
    },
    {
      "name": "MapleMeshCBay_E",
      "role": "repeater",
      "lat": 47.3645,
      "lon": -122.048
    },
    {
      "name": "minitrue",
      "role": "repeater",
      "lat": 47.6843,
      "lon": -122.341
    },
    {
      "name": "WTacoma_Public_pass_",
      "role": "repeater",
      "lat": 47.2981,
      "lon": -122.516
    },
    {
      "name": "Robop_pw_hello",
      "role": "repeater",
      "lat": 47.8073,
      "lon": -122.237
    },
    {
      "name": "ZNet_Repeater",
      "role": "repeater",
      "lat": 47.387,
      "lon": -122.08
    },
    {
      "name": "OspreyBase",
      "role": "repeater",
      "lat": 47.551,
      "lon": -122.234
    },
    {
      "name": "Cats_Whiskers_Repeat",
      "role": "repeater",
      "lat": 47.7662,
      "lon": -122.271
    },
    {
      "name": "TWT_Room_Server",
      "role": "repeater",
      "lat": 47.9797,
      "lon": -122.081
    },
    {
      "name": "VashonGD1_2",
      "role": "repeater",
      "lat": 47.4548,
      "lon": -122.482
    },
    {
      "name": "Gig_Repeater_2",
      "role": "repeater",
      "lat": 47.3298,
      "lon": -122.6
    },
    {
      "name": "FOX_ISLAND_S_Repea",
      "role": "repeater",
      "lat": 47.2227,
      "lon": -122.614
    },
    {
      "name": "Alaska_Junction_SE",
      "role": "repeater",
      "lat": 47.5598,
      "lon": -122.381
    },
    {
      "name": "GC97_Arbor_Heights_Y",
      "role": "repeater",
      "lat": 47.5066,
      "lon": -122.372
    },
    {
      "name": "TK421_1W_Repeater",
      "role": "repeater",
      "lat": 47.0119,
      "lon": -122.894
    },
    {
      "name": "Magpie_Nest",
      "role": "repeater",
      "lat": 47.5577,
      "lon": -122.23
    },
    {
      "name": "Kirkland_NE",
      "role": "repeater",
      "lat": 47.7318,
      "lon": -122.176
    },
    {
      "name": "JAGSFAM",
      "role": "repeater",
      "lat": 47.5707,
      "lon": -122.014
    },
    {
      "name": "Lower_Queen_Anne",
      "role": "repeater",
      "lat": 47.6242,
      "lon": -122.354
    },
    {
      "name": "C2903TN_T114",
      "role": "repeater",
      "lat": 47.8853,
      "lon": -122.274
    },
    {
      "name": "Hermitage_KJ7JQM",
      "role": "repeater",
      "lat": 47.7152,
      "lon": -122.361
    },
    {
      "name": "Cherry_Crest",
      "role": "repeater",
      "lat": 47.6409,
      "lon": -122.179
    },
    {
      "name": "Dupont_Repeater_b",
      "role": "repeater",
      "lat": 47.0976,
      "lon": -122.678
    },
    {
      "name": "Puget_Ridge_Repeater",
      "role": "repeater",
      "lat": 47.5339,
      "lon": -122.355
    },
    {
      "name": "STLRepeater1",
      "role": "repeater",
      "lat": 47.8986,
      "lon": -121.881
    },
    {
      "name": "Demon_Fox_Rpt_2",
      "role": "repeater",
      "lat": 47.7359,
      "lon": -122.355
    },
    {
      "name": "Sycamorons_Repeater_",
      "role": "repeater",
      "lat": 47.6798,
      "lon": -122.358
    },
    {
      "name": "Wedgwood_Arf",
      "role": "repeater",
      "lat": 47.6957,
      "lon": -122.292
    },
    {
      "name": "Fox_Island_Bridge_Re",
      "role": "repeater",
      "lat": 47.2739,
      "lon": -122.655
    },
    {
      "name": "C_Everett__MagicPant",
      "role": "repeater",
      "lat": 47.9303,
      "lon": -122.217
    },
    {
      "name": "Portage_Bay",
      "role": "repeater",
      "lat": 47.6481,
      "lon": -122.313
    },
    {
      "name": "Clark_Lake_Kent",
      "role": "repeater",
      "lat": 47.3821,
      "lon": -122.171
    },
    {
      "name": "Portage_Bay_G2",
      "role": "repeater",
      "lat": 47.6559,
      "lon": -122.321
    },
    {
      "name": "6A3E_Repeater",
      "role": "repeater",
      "lat": 47.7308,
      "lon": -122.223
    },
    {
      "name": "RooseveltRepeater",
      "role": "repeater",
      "lat": 47.6774,
      "lon": -122.313
    },
    {
      "name": "TRex_Hates_Pushups",
      "role": "repeater",
      "lat": 47.5709,
      "lon": -122.094
    },
    {
      "name": "Not_a_Squirrel",
      "role": "repeater",
      "lat": 47.6886,
      "lon": -122.107
    },
    {
      "name": "UYH_Repeater",
      "role": "repeater",
      "lat": 47.5066,
      "lon": -122.365
    },
    {
      "name": "Tree_Hugger_Solar_Ne",
      "role": "repeater",
      "lat": 47.5484,
      "lon": -122.788
    },
    {
      "name": "Picnic_Point",
      "role": "repeater",
      "lat": 47.8715,
      "lon": -122.302
    },
    {
      "name": "TCLS_1W_Repeater",
      "role": "repeater",
      "lat": 47.8343,
      "lon": -122.334
    },
    {
      "name": "MapleValley_V4_Power",
      "role": "repeater",
      "lat": 47.3618,
      "lon": -122.054
    },
    {
      "name": "Tachyon_Repeater",
      "role": "repeater",
      "lat": 47.6792,
      "lon": -122.521
    },
    {
      "name": "Depreciated",
      "role": "repeater",
      "lat": 47.4908,
      "lon": -122.291
    },
    {
      "name": "Corridor_Repeater",
      "role": "repeater",
      "lat": 47.4082,
      "lon": -122.298
    },
    {
      "name": "Huson_Sol_Room",
      "role": "repeater",
      "lat": 47.2778,
      "lon": -122.504
    },
    {
      "name": "REDCoronaMobileRP",
      "role": "repeater",
      "lat": 47.6879,
      "lon": -122.092
    },
    {
      "name": "Paul_T_Meshcore_Room",
      "role": "repeater",
      "lat": 47.6725,
      "lon": -122.12
    },
    {
      "name": "TangleTown_Repeater",
      "role": "repeater",
      "lat": 47.6727,
      "lon": -122.329
    },
    {
      "name": "G0",
      "role": "repeater",
      "lat": 47.8942,
      "lon": -122.25
    },
    {
      "name": "LBP_Repeater_2",
      "role": "repeater",
      "lat": 47.3025,
      "lon": -122.44
    },
    {
      "name": "DT_Oly_PW__hello",
      "role": "repeater",
      "lat": 47.0469,
      "lon": -122.902
    },
    {
      "name": "White_Center",
      "role": "repeater",
      "lat": 47.5181,
      "lon": -122.355
    },
    {
      "name": "Magnolia_Valley",
      "role": "repeater",
      "lat": 47.6501,
      "lon": -122.398
    },
    {
      "name": "N7JMVSno1stPresbRP",
      "role": "repeater",
      "lat": 47.9285,
      "lon": -122.096
    },
    {
      "name": "White_Center_South",
      "role": "repeater",
      "lat": 47.5043,
      "lon": -122.354
    },
    {
      "name": "ISQIMSRptr",
      "role": "repeater",
      "lat": 47.5249,
      "lon": -122.029
    },
    {
      "name": "Hobo_Reptr_2_2",
      "role": "repeater",
      "lat": 47.1044,
      "lon": -122.79
    },
    {
      "name": "Roosevelt_Tree_Top",
      "role": "repeater",
      "lat": 47.6807,
      "lon": -122.315
    },
    {
      "name": "Ferns_and_Moss",
      "role": "repeater",
      "lat": 47.57,
      "lon": -122.387
    },
    {
      "name": "Woodard_Creek_Node",
      "role": "repeater",
      "lat": 47.0685,
      "lon": -122.855
    },
    {
      "name": "Airhack_Room_PW_hell",
      "role": "repeater",
      "lat": 47.4811,
      "lon": -122.225
    },
    {
      "name": "gloopies",
      "role": "repeater",
      "lat": 47.5428,
      "lon": -122.288
    },
    {
      "name": "North_Delridge",
      "role": "repeater",
      "lat": 47.5644,
      "lon": -122.369
    },
    {
      "name": "Boop_Repeater",
      "role": "repeater",
      "lat": 47.7986,
      "lon": -122.318
    },
    {
      "name": "Powerline_Trail",
      "role": "repeater",
      "lat": 47.692,
      "lon": -122.132
    },
    {
      "name": "WS75_SW37th__Dakota_",
      "role": "repeater",
      "lat": 47.5665,
      "lon": -122.379
    },
    {
      "name": "Edgemoor_Repeater",
      "role": "repeater",
      "lat": 47.5655,
      "lon": -122.03
    },
    {
      "name": "Airhack_DesKent2",
      "role": "repeater",
      "lat": 47.3837,
      "lon": -122.286
    },
    {
      "name": "FSG_Chat",
      "role": "repeater",
      "lat": 47.9164,
      "lon": -121.94
    },
    {
      "name": "BDMESHLAKETAPPS",
      "role": "repeater",
      "lat": 47.2106,
      "lon": -122.176
    },
    {
      "name": "Lost_Lake_Room",
      "role": "repeater",
      "lat": 47.8007,
      "lon": -122.042
    },
    {
      "name": "RV_Booster",
      "role": "repeater",
      "lat": 47.5651,
      "lon": -122.294
    },
    {
      "name": "N7JMVPAINE2RP",
      "role": "repeater",
      "lat": 47.9239,
      "lon": -122.244
    },
    {
      "name": "K7WFB_MC_4631",
      "role": "repeater",
      "lat": 47.6407,
      "lon": -122.351
    },
    {
      "name": "Fife_Eco_Repeater",
      "role": "repeater",
      "lat": 47.2267,
      "lon": -122.342
    },
    {
      "name": "Cottage_Lake",
      "role": "repeater",
      "lat": 47.7718,
      "lon": -122.079
    },
    {
      "name": "Wiener_Dog",
      "role": "repeater",
      "lat": 47.5357,
      "lon": -122.634
    },
    {
      "name": "Dolphin_Point",
      "role": "repeater",
      "lat": 47.5022,
      "lon": -122.459
    },
    {
      "name": "Liverpool_Rptr",
      "role": "repeater",
      "lat": 47.6275,
      "lon": -122.602
    },
    {
      "name": "KK7TGU_Repeater",
      "role": "repeater",
      "lat": 47.6313,
      "lon": -122.358
    },
    {
      "name": "SteelHawkRstRpt",
      "role": "repeater",
      "lat": 47.2949,
      "lon": -122.508
    },
    {
      "name": "WW7STRPugetMesh_Coug",
      "role": "repeater",
      "lat": 47.544,
      "lon": -122.109
    },
    {
      "name": "RAK_P41n_Repeater",
      "role": "repeater",
      "lat": 47.9037,
      "lon": -122.102
    },
    {
      "name": "Genesee_Hill",
      "role": "repeater",
      "lat": 47.5637,
      "lon": -122.396
    },
    {
      "name": "N7MNDR",
      "role": "repeater",
      "lat": 47.5771,
      "lon": -121.978
    },
    {
      "name": "RAK_Repeater",
      "role": "repeater",
      "lat": 47.5482,
      "lon": -122.278
    },
    {
      "name": "GnomeSat_4_2",
      "role": "repeater",
      "lat": 47.3703,
      "lon": -122.026
    },
    {
      "name": "OneMeshyRoom",
      "role": "repeater",
      "lat": 47.5863,
      "lon": -122.317
    },
    {
      "name": "Downtown_Repeater",
      "role": "repeater",
      "lat": 47.6138,
      "lon": -122.335
    },
    {
      "name": "o_",
      "role": "repeater",
      "lat": 47.0465,
      "lon": -122.89
    },
    {
      "name": "Cherokee_Bay",
      "role": "repeater",
      "lat": 47.3622,
      "lon": -122.051
    },
    {
      "name": "HyperRepeater",
      "role": "repeater",
      "lat": 47.7094,
      "lon": -122.28
    },
    {
      "name": "Fircrest_bae",
      "role": "repeater",
      "lat": 47.2369,
      "lon": -122.509
    },
    {
      "name": "ChucksTruckRepeater",
      "role": "repeater",
      "lat": 47.6468,
      "lon": -122.627
    },
    {
      "name": "Rainier_Vista_Booste",
      "role": "repeater",
      "lat": 47.565,
      "lon": -122.294
    },
    {
      "name": "Manette_Hill_Climb",
      "role": "repeater",
      "lat": 47.5702,
      "lon": -122.608
    },
    {
      "name": "Phinx_Solar_Repeater",
      "role": "repeater",
      "lat": 47.7514,
      "lon": -122.282
    },
    {
      "name": "RavennaPark",
      "role": "repeater",
      "lat": 47.6737,
      "lon": -122.308
    },
    {
      "name": "Huggy66_Repeater",
      "role": "repeater",
      "lat": 47.508,
      "lon": -122.359
    },
    {
      "name": "Rainier_Vista_East",
      "role": "repeater",
      "lat": 47.5632,
      "lon": -122.292
    },
    {
      "name": "Rainier_Vista_West",
      "role": "repeater",
      "lat": 47.5636,
      "lon": -122.297
    },
    {
      "name": "Pepper_Hill",
      "role": "repeater",
      "lat": 47.735,
      "lon": -122.345
    },
    {
      "name": "SP",
      "role": "repeater",
      "lat": 47.5611,
      "lon": -122.009
    },
    {
      "name": "Roosevelt_Public",
      "role": "repeater",
      "lat": 47.676,
      "lon": -122.32
    },
    {
      "name": "Rainier_Vista_West_2",
      "role": "repeater",
      "lat": 47.5636,
      "lon": -122.297
    },
    {
      "name": "Loki_Repeater",
      "role": "repeater",
      "lat": 47.6505,
      "lon": -122.633
    },
    {
      "name": "CoR1",
      "role": "repeater",
      "lat": 47.0012,
      "lon": -122.709
    },
    {
      "name": "Ballard_Balcony",
      "role": "repeater",
      "lat": 47.6709,
      "lon": -122.39
    },
    {
      "name": "PugetMesh_Haystack",
      "role": "repeater",
      "lat": 47.809,
      "lon": -121.727
    },
    {
      "name": "Sinclair_Beacon",
      "role": "repeater",
      "lat": 47.5376,
      "lon": -122.639
    },
    {
      "name": "HOWL_Repeater_2",
      "role": "repeater",
      "lat": 47.9833,
      "lon": -122.133
    },
    {
      "name": "River145Treetop",
      "role": "repeater",
      "lat": 47.164,
      "lon": -122.033
    },
    {
      "name": "AntifaHQ",
      "role": "repeater",
      "lat": 47.499,
      "lon": -122.211
    },
    {
      "name": "PresenceAuburn_2",
      "role": "repeater",
      "lat": 47.2908,
      "lon": -122.197
    },
    {
      "name": "East_Alderton",
      "role": "repeater",
      "lat": 47.1884,
      "lon": -122.196
    },
    {
      "name": "Ballard",
      "role": "repeater",
      "lat": 47.671,
      "lon": -122.393
    },
    {
      "name": "OMTrix",
      "role": "repeater",
      "lat": 47.0414,
      "lon": -122.874
    },
    {
      "name": "irlqt",
      "role": "repeater",
      "lat": 47.6178,
      "lon": -122.323
    },
    {
      "name": "Brier_Hill_Solar_Rep",
      "role": "repeater",
      "lat": 47.7776,
      "lon": -122.276
    },
    {
      "name": "Bethel_PortOrchard",
      "role": "repeater",
      "lat": 47.4941,
      "lon": -122.624
    },
    {
      "name": "BatBoxRepeater",
      "role": "repeater",
      "lat": 47.6446,
      "lon": -122.628
    },
    {
      "name": "Cottage_Grove",
      "role": "repeater",
      "lat": 47.5537,
      "lon": -122.363
    },
    {
      "name": "KG7QIN_R4",
      "role": "repeater",
      "lat": 47.1777,
      "lon": -122.248
    },
    {
      "name": "S_Bellevue",
      "role": "repeater",
      "lat": 47.577,
      "lon": -122.178
    },
    {
      "name": "2k_Lake_WA_RPTR",
      "role": "repeater",
      "lat": 47.5095,
      "lon": -122.201
    },
    {
      "name": "Cottage_Lake_HTv3",
      "role": "repeater",
      "lat": 47.7718,
      "lon": -122.079
    },
    {
      "name": "MapleMesh_Rock_Cre",
      "role": "repeater",
      "lat": 47.358,
      "lon": -122.038
    },
    {
      "name": "Summerfield",
      "role": "repeater",
      "lat": 47.4627,
      "lon": -122.128
    },
    {
      "name": "K7FSX_Greenwood",
      "role": "repeater",
      "lat": 47.6906,
      "lon": -122.347
    },
    {
      "name": "Puget_Ridge_Repeater_2",
      "role": "repeater",
      "lat": 47.534,
      "lon": -122.355
    },
    {
      "name": "KPSouth",
      "role": "repeater",
      "lat": 47.2109,
      "lon": -122.769
    },
    {
      "name": "K7FSX_Greenwood_Room",
      "role": "repeater",
      "lat": 47.6906,
      "lon": -122.347
    },
    {
      "name": "Cisien_Station_Pi",
      "role": "repeater",
      "lat": 47.7361,
      "lon": -121.968
    },
    {
      "name": "Black_Base",
      "role": "repeater",
      "lat": 47.6053,
      "lon": -122.298
    },
    {
      "name": "WA7DASR1",
      "role": "repeater",
      "lat": 47.6509,
      "lon": -122.386
    },
    {
      "name": "English_Hill_Repeate",
      "role": "repeater",
      "lat": 47.7196,
      "lon": -122.11
    },
    {
      "name": "NovaRepeater",
      "role": "repeater",
      "lat": 47.8058,
      "lon": -122.341
    },
    {
      "name": "Viejo_2",
      "role": "repeater",
      "lat": 47.7776,
      "lon": -122.202
    },
    {
      "name": "NWRTSMACKRPTR1W2",
      "role": "repeater",
      "lat": 47.5021,
      "lon": -122.688
    },
    {
      "name": "QES_Finn_Hill",
      "role": "repeater",
      "lat": 47.7209,
      "lon": -122.243
    },
    {
      "name": "StickyRepeater",
      "role": "repeater",
      "lat": 47.8715,
      "lon": -122.307
    },
    {
      "name": "GreMesh",
      "role": "repeater",
      "lat": 47.4666,
      "lon": -122.212
    },
    {
      "name": "Str8OuttaLFP",
      "role": "repeater",
      "lat": 47.7603,
      "lon": -122.297
    },
    {
      "name": "Spanaway_Repeater",
      "role": "repeater",
      "lat": 47.0759,
      "lon": -122.36
    },
    {
      "name": "WS90_SolsticePark_So",
      "role": "repeater",
      "lat": 47.537,
      "lon": -122.389
    },
    {
      "name": "Brighton",
      "role": "repeater",
      "lat": 47.5461,
      "lon": -122.281
    },
    {
      "name": "McDonalds_Free_WiFi",
      "role": "repeater",
      "lat": 47.6952,
      "lon": -122.374
    },
    {
      "name": "Star_Scream",
      "role": "repeater",
      "lat": 47.0452,
      "lon": -122.879
    },
    {
      "name": "LowLightRelay201",
      "role": "repeater",
      "lat": 47.6461,
      "lon": -122.628
    },
    {
      "name": "Licton_Springs_Chat",
      "role": "repeater",
      "lat": 47.6986,
      "lon": -122.34
    },
    {
      "name": "Squire_Park",
      "role": "repeater",
      "lat": 47.6024,
      "lon": -122.312
    },
    {
      "name": "TRex",
      "role": "repeater",
      "lat": 47.5709,
      "lon": -122.094
    },
    {
      "name": "LQA_RPTR__Hive_0",
      "role": "repeater",
      "lat": 47.623,
      "lon": -122.369
    },
    {
      "name": "CrossNet_Room",
      "role": "repeater",
      "lat": 47.6622,
      "lon": -122.271
    },
    {
      "name": "Puyallup_Room",
      "role": "repeater",
      "lat": 47.1607,
      "lon": -122.31
    },
    {
      "name": "Oly_Fence_Post",
      "role": "repeater",
      "lat": 47.0351,
      "lon": -122.873
    },
    {
      "name": "CFFM_Repeater_1",
      "role": "repeater",
      "lat": 47.5399,
      "lon": -122.387
    },
    {
      "name": "Crow_Repeater",
      "role": "repeater",
      "lat": 47.6566,
      "lon": -122.362
    },
    {
      "name": "Commander_Chode",
      "role": "repeater",
      "lat": 47.5709,
      "lon": -122.094
    },
    {
      "name": "Abode_R2_Lacey_Downs",
      "role": "repeater",
      "lat": 47.034,
      "lon": -122.809
    },
    {
      "name": "West_Sea__Alki_Heigh",
      "role": "repeater",
      "lat": 47.5649,
      "lon": -122.403
    },
    {
      "name": "W7JE_Belfair_RPT",
      "role": "repeater",
      "lat": 47.3736,
      "lon": -122.899
    },
    {
      "name": "NE_Beacon_Hill_Repea",
      "role": "repeater",
      "lat": 47.5766,
      "lon": -122.308
    },
    {
      "name": "Portage_Bay_G2_2",
      "role": "repeater",
      "lat": 47.6559,
      "lon": -122.321
    },
    {
      "name": "IQX_West_Beacon",
      "role": "repeater",
      "lat": 47.563,
      "lon": -122.319
    },
    {
      "name": "Westgate__Tacoma",
      "role": "repeater",
      "lat": 47.26,
      "lon": -122.528
    },
    {
      "name": "CovWest",
      "role": "repeater",
      "lat": 47.3678,
      "lon": -122.127
    },
    {
      "name": "Alpha_Repeater",
      "role": "repeater",
      "lat": 47.9825,
      "lon": -122.132
    },
    {
      "name": "Steamboat",
      "role": "repeater",
      "lat": 47.1103,
      "lon": -122.987
    },
    {
      "name": "The_Castle_2_2",
      "role": "repeater",
      "lat": 47.6675,
      "lon": -122.131
    },
    {
      "name": "WA7TCH_REPEATER_2",
      "role": "repeater",
      "lat": 47.6754,
      "lon": -122.158
    },
    {
      "name": "Chucks",
      "role": "repeater",
      "lat": 47.6909,
      "lon": -122.366
    },
    {
      "name": "Black_Hawthorn",
      "role": "repeater",
      "lat": 47.1081,
      "lon": -122.977
    },
    {
      "name": "KinkyPeater",
      "role": "repeater",
      "lat": 47.3871,
      "lon": -122.187
    },
    {
      "name": "Altair_IV",
      "role": "repeater",
      "lat": 47.4731,
      "lon": -122.143
    },
    {
      "name": "Magnolia_Hill_2",
      "role": "repeater",
      "lat": 47.6411,
      "lon": -122.393
    },
    {
      "name": "LOKI_RPT",
      "role": "repeater",
      "lat": 47.1058,
      "lon": -122.288
    },
    {
      "name": "Ancho_Reyes",
      "role": "repeater",
      "lat": 47.043,
      "lon": -122.872
    },
    {
      "name": "LimpyPeater_Hillman",
      "role": "repeater",
      "lat": 47.5504,
      "lon": -122.277
    },
    {
      "name": "Huson_Room",
      "role": "repeater",
      "lat": 47.2778,
      "lon": -122.504
    },
    {
      "name": "KD7NER__BALDI",
      "role": "repeater",
      "lat": 47.2191,
      "lon": -121.843
    },
    {
      "name": "Briarcrest_Repeater",
      "role": "repeater",
      "lat": 47.7365,
      "lon": -122.292
    },
    {
      "name": "Packet_town",
      "role": "repeater",
      "lat": 47.6694,
      "lon": -122.326
    },
    {
      "name": "Tacoma_Eastside",
      "role": "repeater",
      "lat": 47.2042,
      "lon": -122.426
    },
    {
      "name": "devhackchat",
      "role": "repeater",
      "lat": 47.6613,
      "lon": -122.313
    },
    {
      "name": "Mojo_Repeater",
      "role": "repeater",
      "lat": 47.3199,
      "lon": -122.219
    },
    {
      "name": "Vashon_Cove_2",
      "role": "repeater",
      "lat": 47.455,
      "lon": -122.507
    },
    {
      "name": "K7BA_Repeater",
      "role": "repeater",
      "lat": 47.987,
      "lon": -122.192
    },
    {
      "name": "K9BDCRepeater",
      "role": "repeater",
      "lat": 47.5403,
      "lon": -122.177
    },
    {
      "name": "5018",
      "role": "repeater",
      "lat": 47.5548,
      "lon": -122.277
    },
    {
      "name": "Thack_Private_Room",
      "role": "repeater",
      "lat": 47.5824,
      "lon": -122.199
    },
    {
      "name": "SCBothellRidgeRP",
      "role": "repeater",
      "lat": 47.7943,
      "lon": -122.174
    },
    {
      "name": "Maple_Leaf_Manor",
      "role": "repeater",
      "lat": 47.6924,
      "lon": -122.313
    },
    {
      "name": "SEAMESH_CORE_R1",
      "role": "repeater",
      "lat": 47.6186,
      "lon": -122.338
    },
    {
      "name": "Interlake",
      "role": "repeater",
      "lat": 47.6587,
      "lon": -122.338
    },
    {
      "name": "SEAMESH_CORE_R2",
      "role": "repeater",
      "lat": 47.6187,
      "lon": -122.338
    },
    {
      "name": "ChuRepeater",
      "role": "repeater",
      "lat": 47.0568,
      "lon": -122.745
    },
    {
      "name": "First_Hill_Skyline_2",
      "role": "repeater",
      "lat": 47.6101,
      "lon": -122.325
    },
    {
      "name": "KG7QIN_RObserver",
      "role": "repeater",
      "lat": 47.1777,
      "lon": -122.249
    },
    {
      "name": "Hottermess",
      "role": "repeater",
      "lat": 47.538,
      "lon": -122.279
    },
    {
      "name": "Vassault_Park_2__Tac",
      "role": "repeater",
      "lat": 47.2796,
      "lon": -122.512
    },
    {
      "name": "Esterra_Repeater",
      "role": "repeater",
      "lat": 47.6355,
      "lon": -122.136
    },
    {
      "name": "Olympic_Champion__So",
      "role": "repeater",
      "lat": 47.7534,
      "lon": -122.923
    },
    {
      "name": "Lassiter_Repeater",
      "role": "repeater",
      "lat": 47.6874,
      "lon": -122.35
    },
    {
      "name": "Asic_Repeater",
      "role": "repeater",
      "lat": 47.606,
      "lon": -122.039
    },
    {
      "name": "Woodhell_Schism",
      "role": "repeater",
      "lat": 47.7422,
      "lon": -122.185
    },
    {
      "name": "Spider_Forest",
      "role": "repeater",
      "lat": 47.4435,
      "lon": -121.757
    },
    {
      "name": "Reintreenode",
      "role": "repeater",
      "lat": 47.7613,
      "lon": -122.069
    },
    {
      "name": "DMASpaceMesh",
      "role": "repeater",
      "lat": 47.6146,
      "lon": -122.317
    },
    {
      "name": "WedgBreadMesh",
      "role": "repeater",
      "lat": 47.6797,
      "lon": -122.291
    },
    {
      "name": "SteelHawkRpt",
      "role": "repeater",
      "lat": 47.2247,
      "lon": -122.443
    },
    {
      "name": "CH_RPTR_Room",
      "role": "repeater",
      "lat": 47.6907,
      "lon": -122.379
    },
    {
      "name": "ArDb__Matthews_Beach",
      "role": "repeater",
      "lat": 47.6938,
      "lon": -122.274
    },
    {
      "name": "Mid_Beacon_Hill_Room",
      "role": "repeater",
      "lat": 47.5533,
      "lon": -122.306
    },
    {
      "name": "HobartSR18_Repeater",
      "role": "repeater",
      "lat": 47.4329,
      "lon": -121.969
    },
    {
      "name": "N7JMVNORTHCREEKRP",
      "role": "repeater",
      "lat": 47.8052,
      "lon": -122.168
    },
    {
      "name": "W7ITL_IKOKA__RP",
      "role": "repeater",
      "lat": 47.2795,
      "lon": -122.511
    },
    {
      "name": "Stoneys_Shack",
      "role": "repeater",
      "lat": 47.3268,
      "lon": -122.215
    },
    {
      "name": "BlackBearIssaquahHig",
      "role": "repeater",
      "lat": 47.5478,
      "lon": -121.995
    },
    {
      "name": "QA_Repeater__Hive_0",
      "role": "repeater",
      "lat": 47.623,
      "lon": -122.369
    },
    {
      "name": "Hillwood_Minigolf_2",
      "role": "repeater",
      "lat": 47.772,
      "lon": -122.358
    },
    {
      "name": "Fauntleroy_East",
      "role": "repeater",
      "lat": 47.5211,
      "lon": -122.377
    },
    {
      "name": "N7GRN5_Portage_Bay_r",
      "role": "repeater",
      "lat": 47.6465,
      "lon": -122.319
    },
    {
      "name": "Flightless_Esperance",
      "role": "repeater",
      "lat": 47.786,
      "lon": -122.344
    },
    {
      "name": "River_ESDA_Parkinglo",
      "role": "repeater",
      "lat": 47.2072,
      "lon": -122.012
    },
    {
      "name": "Washington_Park",
      "role": "repeater",
      "lat": 47.6282,
      "lon": -122.296
    },
    {
      "name": "Woodinville_Wedge",
      "role": "repeater",
      "lat": 47.7757,
      "lon": -122.161
    },
    {
      "name": "Lynnwood__Ash_Way",
      "role": "repeater",
      "lat": 47.8567,
      "lon": -122.255
    },
    {
      "name": "FoxRepeater",
      "role": "repeater",
      "lat": 47.3435,
      "lon": -122.03
    },
    {
      "name": "Stevens",
      "role": "repeater",
      "lat": 47.6286,
      "lon": -122.302
    },
    {
      "name": "node_3",
      "role": "repeater",
      "lat": 47.6687,
      "lon": -122.388
    },
    {
      "name": "Boeing_Field",
      "role": "repeater",
      "lat": 47.526,
      "lon": -122.295
    },
    {
      "name": "Silver_Firs_Room",
      "role": "repeater",
      "lat": 47.8731,
      "lon": -122.158
    },
    {
      "name": "No2Rm1",
      "role": "repeater",
      "lat": 47.762,
      "lon": -122.202
    },
    {
      "name": "Bitterlake_Solarpeat",
      "role": "repeater",
      "lat": 47.7123,
      "lon": -122.352
    },
    {
      "name": "Roosevelt_Pocket_Mes",
      "role": "repeater",
      "lat": 47.6792,
      "lon": -122.318
    },
    {
      "name": "MidBeacon_PP",
      "role": "repeater",
      "lat": 47.5575,
      "lon": -122.306
    },
    {
      "name": "Enatai",
      "role": "repeater",
      "lat": 47.5823,
      "lon": -122.199
    },
    {
      "name": "Dyes_East",
      "role": "repeater",
      "lat": 47.609,
      "lon": -122.646
    },
    {
      "name": "ArcanineCore_2",
      "role": "repeater",
      "lat": 47.5148,
      "lon": -122.123
    },
    {
      "name": "Volunteer_Park_SW",
      "role": "repeater",
      "lat": 47.6297,
      "lon": -122.32
    },
    {
      "name": "juicebox",
      "role": "repeater",
      "lat": 47.5523,
      "lon": -122.332
    },
    {
      "name": "W6SNXDon",
      "role": "repeater",
      "lat": 47.6916,
      "lon": -122.184
    },
    {
      "name": "SC3LAKESRP",
      "role": "repeater",
      "lat": 47.948,
      "lon": -121.917
    },
    {
      "name": "Good_Coffee_Great_La",
      "role": "repeater",
      "lat": 47.6796,
      "lon": -122.341
    },
    {
      "name": "KG7QIN_R3",
      "role": "repeater",
      "lat": 47.1777,
      "lon": -122.249
    },
    {
      "name": "BrandoSweetOrchard",
      "role": "repeater",
      "lat": 47.5532,
      "lon": -122.274
    },
    {
      "name": "May_Valley_Repeater",
      "role": "repeater",
      "lat": 47.5241,
      "lon": -122.162
    },
    {
      "name": "IQX_Walkman_Portable",
      "role": "repeater",
      "lat": 47.1834,
      "lon": -122.294
    },
    {
      "name": "University_Place_2",
      "role": "repeater",
      "lat": 47.2052,
      "lon": -122.568
    },
    {
      "name": "Cap_Hill_Broadway",
      "role": "repeater",
      "lat": 47.6238,
      "lon": -122.321
    },
    {
      "name": "Cow_Peat_DELTA_Test",
      "role": "repeater",
      "lat": 47.9924,
      "lon": -122.198
    },
    {
      "name": "node_4",
      "role": "repeater",
      "lat": 47.8723,
      "lon": -122.151
    },
    {
      "name": "Naked_in_Capitol_Hil",
      "role": "repeater",
      "lat": 47.6215,
      "lon": -122.316
    },
    {
      "name": "Kandle_Park_N_Tacoma",
      "role": "repeater",
      "lat": 47.2682,
      "lon": -122.504
    },
    {
      "name": "BelladonnaOly",
      "role": "repeater",
      "lat": 47.0648,
      "lon": -122.842
    },
    {
      "name": "River145WIOR1",
      "role": "repeater",
      "lat": 47.1653,
      "lon": -122.027
    },
    {
      "name": "Timber_Hearth",
      "role": "repeater",
      "lat": 47.188,
      "lon": -122.444
    },
    {
      "name": "Xtreme_Repeater",
      "role": "repeater",
      "lat": 47.6473,
      "lon": -122.624
    },
    {
      "name": "Bear_Repeater",
      "role": "repeater",
      "lat": 47.3943,
      "lon": -121.992
    },
    {
      "name": "Lafayeti_3",
      "role": "repeater",
      "lat": 47.5747,
      "lon": -122.311
    },
    {
      "name": "PEX_Repeater",
      "role": "repeater",
      "lat": 47.5686,
      "lon": -122.654
    },
    {
      "name": "Ballard_Locks_1W_Rep",
      "role": "repeater",
      "lat": 47.6688,
      "lon": -122.396
    },
    {
      "name": "Elisha_Repeater",
      "role": "repeater",
      "lat": 47.4069,
      "lon": -122.456
    },
    {
      "name": "KCARCKARSGM",
      "role": "repeater",
      "lat": 47.5749,
      "lon": -122.811
    },
    {
      "name": "Black_Lodge_Research",
      "role": "repeater",
      "lat": 47.6633,
      "lon": -122.104
    },
    {
      "name": "Manette_East_1",
      "role": "repeater",
      "lat": 47.5766,
      "lon": -122.603
    },
    {
      "name": "FI_MINI_TEST",
      "role": "repeater",
      "lat": 47.2221,
      "lon": -122.611
    },
    {
      "name": "Cisien_Station_1W",
      "role": "repeater",
      "lat": 47.7353,
      "lon": -121.969
    },
    {
      "name": "TK421_Tree_Beacon",
      "role": "repeater",
      "lat": 47.0117,
      "lon": -122.893
    },
    {
      "name": "Martin_Room",
      "role": "repeater",
      "lat": 47.6957,
      "lon": -122.293
    },
    {
      "name": "OlyMesh_SE",
      "role": "repeater",
      "lat": 47.0412,
      "lon": -122.872
    },
    {
      "name": "OverHome",
      "role": "repeater",
      "lat": 47.0396,
      "lon": -122.881
    },
    {
      "name": "SheridanBeachOne",
      "role": "repeater",
      "lat": 47.7451,
      "lon": -122.284
    },
    {
      "name": "Duvall_Southeast2",
      "role": "repeater",
      "lat": 47.7334,
      "lon": -121.95
    },
    {
      "name": "RBS_Repeater",
      "role": "repeater",
      "lat": 47.6745,
      "lon": -122.115
    },
    {
      "name": "KF7MXQRoom",
      "role": "repeater",
      "lat": 47.628,
      "lon": -122.102
    },
    {
      "name": "VN4_VashNetcom",
      "role": "repeater",
      "lat": 47.3425,
      "lon": -122.512
    },
    {
      "name": "Lake_Tapps_Repeater",
      "role": "repeater",
      "lat": 47.2329,
      "lon": -122.164
    },
    {
      "name": "Maplewood_Repeater",
      "role": "repeater",
      "lat": 47.4814,
      "lon": -122.137
    },
    {
      "name": "Kirkland_Highlands",
      "role": "repeater",
      "lat": 47.6841,
      "lon": -122.186
    },
    {
      "name": "Muggz_Base_Lynnwood",
      "role": "repeater",
      "lat": 47.8259,
      "lon": -122.279
    },
    {
      "name": "REDConiferRidge",
      "role": "repeater",
      "lat": 47.6749,
      "lon": -122.11
    },
    {
      "name": "CID_Station_2",
      "role": "repeater",
      "lat": 47.5983,
      "lon": -122.328
    },
    {
      "name": "WCHooter",
      "role": "repeater",
      "lat": 47.5064,
      "lon": -122.358
    },
    {
      "name": "THEC_RsRepeater",
      "role": "repeater",
      "lat": 47.22,
      "lon": -122.56
    },
    {
      "name": "WASMA_Room",
      "role": "repeater",
      "lat": 47.5709,
      "lon": -122.094
    },
    {
      "name": "Silver_Firs_Repeater",
      "role": "repeater",
      "lat": 47.874,
      "lon": -122.158
    },
    {
      "name": "Decay_Repeater",
      "role": "repeater",
      "lat": 47.0471,
      "lon": -122.901
    },
    {
      "name": "WhiskeyTango_base",
      "role": "repeater",
      "lat": 47.9507,
      "lon": -122.026
    },
    {
      "name": "Taco_Tuesday_2",
      "role": "repeater",
      "lat": 47.6271,
      "lon": -122.326
    },
    {
      "name": "N7URHR1",
      "role": "repeater",
      "lat": 47.4979,
      "lon": -122.221
    },
    {
      "name": "N7GRN4_Portage_Bay_r",
      "role": "repeater",
      "lat": 47.6465,
      "lon": -122.319
    },
    {
      "name": "Chaparral_North_Bend",
      "role": "repeater",
      "lat": 47.4425,
      "lon": -121.762
    },
    {
      "name": "Lar_Room_pw_hello",
      "role": "repeater",
      "lat": 47.7879,
      "lon": -122.233
    },
    {
      "name": "Redmond_Wayfinder",
      "role": "repeater",
      "lat": 47.6897,
      "lon": -122.084
    },
    {
      "name": "Barton_StTbeam_Repea",
      "role": "repeater",
      "lat": 47.5214,
      "lon": -122.381
    },
    {
      "name": "WO0Fcom_Ridgecrest",
      "role": "repeater",
      "lat": 47.7484,
      "lon": -122.326
    },
    {
      "name": "WO0F_Ridgecrest",
      "role": "repeater",
      "lat": 47.7484,
      "lon": -122.326
    },
    {
      "name": "node_5",
      "role": "repeater",
      "lat": 47.4809,
      "lon": -122.138
    },
    {
      "name": "Summit",
      "role": "repeater",
      "lat": 47.1616,
      "lon": -122.357
    },
    {
      "name": "Cisien_Station",
      "role": "repeater",
      "lat": 47.7361,
      "lon": -121.968
    },
    {
      "name": "Moon_Tower",
      "role": "repeater",
      "lat": 47.6965,
      "lon": -122.166
    },
    {
      "name": "Algona_WA",
      "role": "repeater",
      "lat": 47.2752,
      "lon": -122.265
    },
    {
      "name": "YS_Repeater",
      "role": "repeater",
      "lat": 47.25,
      "lon": -121.998
    },
    {
      "name": "DMASpaceMeshRoom",
      "role": "repeater",
      "lat": 47.6144,
      "lon": -122.319
    },
    {
      "name": "KRKDT_RP",
      "role": "repeater",
      "lat": 47.674,
      "lon": -122.2
    },
    {
      "name": "W7ZOORPTR1W",
      "role": "repeater",
      "lat": 47.6725,
      "lon": -122.342
    },
    {
      "name": "Bateared",
      "role": "repeater",
      "lat": 47.6744,
      "lon": -122.379
    },
    {
      "name": "GC97_Arbor_Heights_O",
      "role": "repeater",
      "lat": 47.5068,
      "lon": -122.372
    },
    {
      "name": "NWReadyRoom",
      "role": "repeater",
      "lat": 47.511,
      "lon": -122.683
    },
    {
      "name": "Mosswood_Loft",
      "role": "repeater",
      "lat": 47.6114,
      "lon": -122.316
    },
    {
      "name": "Cafe",
      "role": "repeater",
      "lat": 47.6893,
      "lon": -122.366
    },
    {
      "name": "HAXpeater",
      "role": "repeater",
      "lat": 47.8334,
      "lon": -122.112
    },
    {
      "name": "MapleMeshCBay",
      "role": "repeater",
      "lat": 47.3622,
      "lon": -122.051
    },
    {
      "name": "KCARCKARSGM_2",
      "role": "repeater",
      "lat": 47.569,
      "lon": -122.818
    },
    {
      "name": "Holly_Repeater_V4",
      "role": "repeater",
      "lat": 47.9086,
      "lon": -122.243
    },
    {
      "name": "W7ZOORPTRGREENLAKE",
      "role": "repeater",
      "lat": 47.6758,
      "lon": -122.346
    },
    {
      "name": "PerunMesh1",
      "role": "repeater",
      "lat": 47.5446,
      "lon": -122.145
    },
    {
      "name": "Meow_T114Solar",
      "role": "repeater",
      "lat": 47.6718,
      "lon": -122.677
    },
    {
      "name": "HOWL_MQTT_V4",
      "role": "repeater",
      "lat": 47.9861,
      "lon": -122.133
    },
    {
      "name": "Genesee_Soon",
      "role": "repeater",
      "lat": 47.5647,
      "lon": -122.38
    },
    {
      "name": "Entropy_Temple",
      "role": "repeater",
      "lat": 47.6014,
      "lon": -122.366
    },
    {
      "name": "AKN_Repeater",
      "role": "repeater",
      "lat": 47.1005,
      "lon": -122.314
    },
    {
      "name": "Puyallup_Repeater",
      "role": "repeater",
      "lat": 47.1608,
      "lon": -122.309
    },
    {
      "name": "House_of_HAX_hello",
      "role": "repeater",
      "lat": 47.8334,
      "lon": -122.113
    },
    {
      "name": "BLH_RPT_V4",
      "role": "repeater",
      "lat": 47.5867,
      "lon": -121.998
    },
    {
      "name": "Crown_Hill",
      "role": "repeater",
      "lat": 47.6962,
      "lon": -122.373
    },
    {
      "name": "thrave_solar",
      "role": "repeater",
      "lat": 47.6942,
      "lon": -122.176
    },
    {
      "name": "Repeater_Graham",
      "role": "repeater",
      "lat": 47.5468,
      "lon": -122.394
    },
    {
      "name": "Kremwerk",
      "role": "repeater",
      "lat": 47.6169,
      "lon": -122.331
    },
    {
      "name": "DillPeater",
      "role": "repeater",
      "lat": 47.7313,
      "lon": -122.172
    },
    {
      "name": "C2903TS_V4",
      "role": "repeater",
      "lat": 47.8843,
      "lon": -122.274
    },
    {
      "name": "RAWTCE",
      "role": "repeater",
      "lat": 47.6117,
      "lon": -122.347
    },
    {
      "name": "Haller_Lake",
      "role": "repeater",
      "lat": 47.7233,
      "lon": -122.334
    },
    {
      "name": "JetSetRadio",
      "role": "repeater",
      "lat": 47.8775,
      "lon": -122.175
    },
    {
      "name": "1",
      "role": "repeater",
      "lat": 47.6235,
      "lon": -122.365
    },
    {
      "name": "Trilogy_Redmond_Repe",
      "role": "repeater",
      "lat": 47.7139,
      "lon": -122.032
    },
    {
      "name": "KB7SDM_Repeater",
      "role": "repeater",
      "lat": 47.7232,
      "lon": -122.334
    },
    {
      "name": "HVSHClarksCreek",
      "role": "repeater",
      "lat": 47.1649,
      "lon": -122.319
    },
    {
      "name": "Solar_Repeater_Maule_2",
      "role": "repeater",
      "lat": 47.1666,
      "lon": -122.331
    },
    {
      "name": "MOST_Mesh_Room",
      "role": "repeater",
      "lat": 47.6294,
      "lon": -122.317
    },
    {
      "name": "LLZhilltop",
      "role": "repeater",
      "lat": 47.2376,
      "lon": -122.448
    },
    {
      "name": "SEA_Bryant_KM7ECH",
      "role": "repeater",
      "lat": 47.6649,
      "lon": -122.285
    },
    {
      "name": "Huson_Sol_2",
      "role": "repeater",
      "lat": 47.2778,
      "lon": -122.504
    },
    {
      "name": "UPMESHY",
      "role": "repeater",
      "lat": 47.2426,
      "lon": -122.526
    },
    {
      "name": "W7BJE_Room",
      "role": "repeater",
      "lat": 47.7426,
      "lon": -122.053
    },
    {
      "name": "K7PIAEastBonneyLake",
      "role": "repeater",
      "lat": 47.1738,
      "lon": -122.128
    },
    {
      "name": "Maule_Solar_Repeater",
      "role": "repeater",
      "lat": 47.1666,
      "lon": -122.331
    },
    {
      "name": "Bardin_Gnome",
      "role": "repeater",
      "lat": 47.0435,
      "lon": -122.871
    },
    {
      "name": "devhack_Room_Pw_hell",
      "role": "repeater",
      "lat": 47.6623,
      "lon": -122.313
    },
    {
      "name": "WA7TCH_REPEATER_1",
      "role": "repeater",
      "lat": 47.3578,
      "lon": -122.059
    },
    {
      "name": "t08n1W_2",
      "role": "repeater",
      "lat": 47.6617,
      "lon": -122.152
    },
    {
      "name": "SCOMCH",
      "role": "repeater",
      "lat": 47.5171,
      "lon": -121.842
    },
    {
      "name": "CoR2",
      "role": "repeater",
      "lat": 47.0013,
      "lon": -122.709
    },
    {
      "name": "OMWoot",
      "role": "repeater",
      "lat": 47.0412,
      "lon": -122.873
    },
    {
      "name": "SR_mid_West_Becon",
      "role": "repeater",
      "lat": 47.555,
      "lon": -122.298
    },
    {
      "name": "doghouse",
      "role": "repeater",
      "lat": 47.7146,
      "lon": -122.227
    },
    {
      "name": "Delridge",
      "role": "repeater",
      "lat": 47.5538,
      "lon": -122.371
    },
    {
      "name": "RAVSHrpt1",
      "role": "repeater",
      "lat": 47.6129,
      "lon": -122.352
    },
    {
      "name": "searep001",
      "role": "repeater",
      "lat": 47.6495,
      "lon": -122.37
    },
    {
      "name": "PNWSEAShoreline",
      "role": "repeater",
      "lat": 47.7414,
      "lon": -122.356
    },
    {
      "name": "KC9ANA__BonneyLakeTa",
      "role": "repeater",
      "lat": 47.1831,
      "lon": -122.154
    },
    {
      "name": "TechieHut",
      "role": "repeater",
      "lat": 47.3679,
      "lon": -122.071
    },
    {
      "name": "KG7QIN_R1",
      "role": "repeater",
      "lat": 47.1777,
      "lon": -122.249
    },
    {
      "name": "Hot_Ratpeater_Summer",
      "role": "repeater",
      "lat": 47.617,
      "lon": -122.32
    },
    {
      "name": "repeather",
      "role": "repeater",
      "lat": 47.6629,
      "lon": -122.315
    },
    {
      "name": "TacomaSafety",
      "role": "repeater",
      "lat": 47.2426,
      "lon": -122.457
    },
    {
      "name": "KK7PW_QTH_Seaview",
      "role": "repeater",
      "lat": 47.5539,
      "lon": -122.394
    },
    {
      "name": "W7ZOORPTR2__CQCRorg",
      "role": "repeater",
      "lat": 47.6758,
      "lon": -122.341
    },
    {
      "name": "MapleMeshElk_Run",
      "role": "repeater",
      "lat": 47.3497,
      "lon": -122.043
    },
    {
      "name": "HoneyHole",
      "role": "repeater",
      "lat": 47.3378,
      "lon": -122.225
    },
    {
      "name": "repeat_offender_2",
      "role": "repeater",
      "lat": 47.5709,
      "lon": -122.094
    },
    {
      "name": "bucketshackradio",
      "role": "repeater",
      "lat": 47.4698,
      "lon": -122.356
    },
    {
      "name": "Hobo_NE_Oly_1w_Rptr",
      "role": "repeater",
      "lat": 47.1045,
      "lon": -122.79
    },
    {
      "name": "EVNT_Repeater",
      "role": "repeater",
      "lat": 47.9365,
      "lon": -122.228
    },
    {
      "name": "WS_TDeck_BFI",
      "role": "repeater",
      "lat": 47.539,
      "lon": -122.305
    },
    {
      "name": "KK7TSH",
      "role": "repeater",
      "lat": 47.5896,
      "lon": -122.864
    },
    {
      "name": "KK7VNR_Roof_Repeater",
      "role": "repeater",
      "lat": 47.8344,
      "lon": -122.315
    },
    {
      "name": "Glenwood_Room",
      "role": "repeater",
      "lat": 47.5221,
      "lon": -122.627
    },
    {
      "name": "node_6",
      "role": "repeater",
      "lat": 47.6364,
      "lon": -122.316
    },
    {
      "name": "Penguin_Hill",
      "role": "repeater",
      "lat": 47.2223,
      "lon": -122.42
    },
    {
      "name": "turnip",
      "role": "repeater",
      "lat": 47.711,
      "lon": -122.352
    },
    {
      "name": "Larch_Way_Repeater",
      "role": "repeater",
      "lat": 47.8332,
      "lon": -122.248
    },
    {
      "name": "N7JMVWA7LAWEVERETTRP",
      "role": "repeater",
      "lat": 47.9979,
      "lon": -122.194
    },
    {
      "name": "MapleMeshCore_Room",
      "role": "repeater",
      "lat": 47.3602,
      "lon": -122.051
    },
    {
      "name": "KK7TSH_",
      "role": "repeater",
      "lat": 47.589,
      "lon": -122.864
    },
    {
      "name": "SnohoMesh_RAK_Router",
      "role": "repeater",
      "lat": 47.8745,
      "lon": -122.091
    },
    {
      "name": "bushwhacker_repeater",
      "role": "repeater",
      "lat": 47.6533,
      "lon": -122.35
    },
    {
      "name": "KK7PMIRPT",
      "role": "repeater",
      "lat": 47.7274,
      "lon": -122.221
    },
    {
      "name": "SCQueensboroughRP",
      "role": "repeater",
      "lat": 47.7867,
      "lon": -122.239
    },
    {
      "name": "Melvins_Repeater",
      "role": "repeater",
      "lat": 47.6604,
      "lon": -122.333
    },
    {
      "name": "WS_Ham_Room",
      "role": "repeater",
      "lat": 47.5216,
      "lon": -122.355
    },
    {
      "name": "EnduroDriver_Phinney",
      "role": "repeater",
      "lat": 47.6805,
      "lon": -122.357
    },
    {
      "name": "TLFW",
      "role": "repeater",
      "lat": 47.3105,
      "lon": -122.362
    },
    {
      "name": "Repeat_Offender",
      "role": "repeater",
      "lat": 47.5709,
      "lon": -122.094
    },
    {
      "name": "W7MIR_Repeater",
      "role": "repeater",
      "lat": 47.5683,
      "lon": -122.221
    },
    {
      "name": "Elberta_Repeater",
      "role": "repeater",
      "lat": 47.806,
      "lon": -122.249
    },
    {
      "name": "SWR0001",
      "role": "repeater",
      "lat": 47.0368,
      "lon": -122.828
    },
    {
      "name": "TopCat",
      "role": "repeater",
      "lat": 47.0611,
      "lon": -122.887
    },
    {
      "name": "WS_W7ETI_Home_Repeat",
      "role": "repeater",
      "lat": 47.71,
      "lon": -122.356
    },
    {
      "name": "Phinx_Helpeater",
      "role": "repeater",
      "lat": 47.7519,
      "lon": -122.282
    },
    {
      "name": "Vassault_Park__Tacom",
      "role": "repeater",
      "lat": 47.2796,
      "lon": -122.511
    },
    {
      "name": "Fremont01_Greenwood3",
      "role": "repeater",
      "lat": 47.6542,
      "lon": -122.356
    },
    {
      "name": "RAK4631_P41n_Repeate",
      "role": "repeater",
      "lat": 47.881,
      "lon": -122.172
    },
    {
      "name": "Stoney_Huggy66_Msgs",
      "role": "repeater",
      "lat": 47.3251,
      "lon": -122.211
    },
    {
      "name": "Magnolia_Central_30t",
      "role": "repeater",
      "lat": 47.6446,
      "lon": -122.396
    },
    {
      "name": "Silas_W_Tacoma",
      "role": "repeater",
      "lat": 47.2601,
      "lon": -122.512
    },
    {
      "name": "FR01",
      "role": "repeater",
      "lat": 47.3275,
      "lon": -122.167
    },
    {
      "name": "Dickcissel",
      "role": "repeater",
      "lat": 47.7447,
      "lon": -122.198
    },
    {
      "name": "House_of_Yeaves",
      "role": "repeater",
      "lat": 47.6104,
      "lon": -122.315
    },
    {
      "name": "NWRRPTRSOLAR",
      "role": "repeater",
      "lat": 47.5017,
      "lon": -122.689
    },
    {
      "name": "Eastlake",
      "role": "repeater",
      "lat": 47.6417,
      "lon": -122.326
    },
    {
      "name": "AntifaHQ_2",
      "role": "repeater",
      "lat": 47.499,
      "lon": -122.211
    },
    {
      "name": "AntifaHQ_3",
      "role": "repeater",
      "lat": 47.499,
      "lon": -122.211
    },
    {
      "name": "Cowen_West",
      "role": "repeater",
      "lat": 47.6733,
      "lon": -122.314
    },
    {
      "name": "NewmG2_Repeater",
      "role": "repeater",
      "lat": 47.8607,
      "lon": -122.308
    },
    {
      "name": "TacSafe",
      "role": "repeater",
      "lat": 47.2433,
      "lon": -122.458
    },
    {
      "name": "Hobart_Nursery",
      "role": "repeater",
      "lat": 47.4101,
      "lon": -121.987
    },
    {
      "name": "Gig_Harbor_Fox_Bridg",
      "role": "repeater",
      "lat": 47.2792,
      "lon": -122.639
    },
    {
      "name": "OMPlum",
      "role": "repeater",
      "lat": 47.0411,
      "lon": -122.874
    },
    {
      "name": "RavennaEckstein_CC",
      "role": "repeater",
      "lat": 47.6766,
      "lon": -122.304
    },
    {
      "name": "PigeonGram",
      "role": "repeater",
      "lat": 47.525,
      "lon": -122.364
    },
    {
      "name": "PlsRepeat",
      "role": "repeater",
      "lat": 47.6955,
      "lon": -122.112
    },
    {
      "name": "CrossNet_RPT1",
      "role": "repeater",
      "lat": 47.6619,
      "lon": -122.271
    },
    {
      "name": "Hi3",
      "role": "repeater",
      "lat": 47.6743,
      "lon": -122.125
    },
    {
      "name": "STLRepeater2",
      "role": "repeater",
      "lat": 47.9019,
      "lon": -121.947
    },
    {
      "name": "N0FPF_HOME_RAK4631_R",
      "role": "repeater",
      "lat": 47.5792,
      "lon": -122.389
    },
    {
      "name": "Airhack_Covington_1",
      "role": "repeater",
      "lat": 47.3581,
      "lon": -122.108
    },
    {
      "name": "SteelPhinney",
      "role": "repeater",
      "lat": 47.6855,
      "lon": -122.366
    },
    {
      "name": "Hue1_2",
      "role": "repeater",
      "lat": 47.8807,
      "lon": -122.332
    },
    {
      "name": "Huson_Sol_3",
      "role": "repeater",
      "lat": 47.2778,
      "lon": -122.504
    },
    {
      "name": "Monroe_808",
      "role": "repeater",
      "lat": 47.8694,
      "lon": -121.959
    },
    {
      "name": "KG7QINR_1W",
      "role": "repeater",
      "lat": 47.1777,
      "lon": -122.249
    },
    {
      "name": "Oly_Downtown",
      "role": "repeater",
      "lat": 47.0449,
      "lon": -122.902
    },
    {
      "name": "DFXMCRepeater",
      "role": "repeater",
      "lat": 47.8435,
      "lon": -122.211
    },
    {
      "name": "Don_W6SNX_repeater",
      "role": "repeater",
      "lat": 47.6918,
      "lon": -122.184
    },
    {
      "name": "Sycamoron_Repeater",
      "role": "repeater",
      "lat": 47.6796,
      "lon": -122.358
    },
    {
      "name": "Meeps_Nest_Repeater",
      "role": "repeater",
      "lat": 47.7625,
      "lon": -122.341
    },
    {
      "name": "Maya_Repeater_2",
      "role": "repeater",
      "lat": 47.1746,
      "lon": -122.35
    },
    {
      "name": "JF_Pond_G2",
      "role": "repeater",
      "lat": 47.3833,
      "lon": -122.193
    },
    {
      "name": "Tumwater_Hill",
      "role": "repeater",
      "lat": 47.0458,
      "lon": -122.902
    },
    {
      "name": "Maya_Repeater_3",
      "role": "repeater",
      "lat": 47.1747,
      "lon": -122.35
    },
    {
      "name": "joelp_KRK_RP",
      "role": "repeater",
      "lat": 47.6704,
      "lon": -122.202
    },
    {
      "name": "Bigelow_N",
      "role": "repeater",
      "lat": 47.0517,
      "lon": -122.885
    },
    {
      "name": "South_Cap_Hill_G2",
      "role": "repeater",
      "lat": 47.6123,
      "lon": -122.321
    },
    {
      "name": "Tacompton",
      "role": "repeater",
      "lat": 47.2261,
      "lon": -122.459
    },
    {
      "name": "600_MHz_King",
      "role": "repeater",
      "lat": 47.5325,
      "lon": -122.65
    },
    {
      "name": "Dupont_Repeater",
      "role": "repeater",
      "lat": 47.0977,
      "lon": -122.678
    },
    {
      "name": "GandalRF_Base",
      "role": "repeater",
      "lat": 47.6459,
      "lon": -122.132
    },
    {
      "name": "NotAHouseKK7PFY",
      "role": "repeater",
      "lat": 47.8389,
      "lon": -122.236
    },
    {
      "name": "NGLMS_RPT",
      "role": "repeater",
      "lat": 47.3432,
      "lon": -122.271
    },
    {
      "name": "Dogbane_Repeater",
      "role": "repeater",
      "lat": 47.0416,
      "lon": -122.88
    },
    {
      "name": "Latona_Hub",
      "role": "repeater",
      "lat": 47.6759,
      "lon": -122.325
    },
    {
      "name": "Thornton_Creek",
      "role": "repeater",
      "lat": 47.712,
      "lon": -122.296
    },
    {
      "name": "pippi",
      "role": "repeater",
      "lat": 47.7158,
      "lon": -122.283
    },
    {
      "name": "AJM_Bridle_Trails",
      "role": "repeater",
      "lat": 47.6414,
      "lon": -122.163
    },
    {
      "name": "Bigelow_S",
      "role": "repeater",
      "lat": 47.0496,
      "lon": -122.882
    },
    {
      "name": "RepeaterMoleTac",
      "role": "repeater",
      "lat": 47.2165,
      "lon": -122.456
    },
    {
      "name": "Aardvark",
      "role": "repeater",
      "lat": 47.6352,
      "lon": -122.115
    },
    {
      "name": "GreenBlack_R",
      "role": "repeater",
      "lat": 47.4531,
      "lon": -122.244
    },
    {
      "name": "Ballard_East_Rebleat",
      "role": "repeater",
      "lat": 47.6685,
      "lon": -122.366
    },
    {
      "name": "4afxTLRX",
      "role": "repeater",
      "lat": 47.5369,
      "lon": -122.28
    },
    {
      "name": "Heltec_v431",
      "role": "repeater",
      "lat": 47.6335,
      "lon": -122.112
    },
    {
      "name": "The_Room",
      "role": "repeater",
      "lat": 47.9219,
      "lon": -122.214
    },
    {
      "name": "Raccoon_Rendezvous__",
      "role": "repeater",
      "lat": 47.632,
      "lon": -122.113
    },
    {
      "name": "Climb__Bike_Tacoma_2",
      "role": "repeater",
      "lat": 47.2778,
      "lon": -122.505
    },
    {
      "name": "Lilith",
      "role": "repeater",
      "lat": 47.5792,
      "lon": -122.171
    },
    {
      "name": "Raccoon_Rendezvous",
      "role": "repeater",
      "lat": 47.6352,
      "lon": -122.115
    },
    {
      "name": "zs03",
      "role": "repeater",
      "lat": 47.268,
      "lon": -122.465
    },
    {
      "name": "Beaver_Lake_RAK",
      "role": "repeater",
      "lat": 47.5868,
      "lon": -122
    },
    {
      "name": "Snowy_Pines_soon",
      "role": "repeater",
      "lat": 47.6335,
      "lon": -122.112
    },
    {
      "name": "Owl_Nest",
      "role": "repeater",
      "lat": 47.6622,
      "lon": -122.357
    },
    {
      "name": "VM_N_Vashon_Forest_R",
      "role": "repeater",
      "lat": 47.4864,
      "lon": -122.467
    },
    {
      "name": "Snowy_Pines",
      "role": "repeater",
      "lat": 47.6321,
      "lon": -122.111
    },
    {
      "name": "Issaquah_Olde_Town",
      "role": "repeater",
      "lat": 47.5291,
      "lon": -122.027
    },
    {
      "name": "N7JMVUnionHillV4RP",
      "role": "repeater",
      "lat": 47.6619,
      "lon": -122.031
    },
    {
      "name": "The_Hideout",
      "role": "repeater",
      "lat": 47.6094,
      "lon": -122.326
    },
    {
      "name": "WallyCore_Repeater",
      "role": "repeater",
      "lat": 47.6649,
      "lon": -122.334
    },
    {
      "name": "Ardmore_NE",
      "role": "repeater",
      "lat": 47.6335,
      "lon": -122.112
    },
    {
      "name": "Ardmore_NE_2",
      "role": "repeater",
      "lat": 47.6335,
      "lon": -122.112
    },
    {
      "name": "Far_Valley",
      "role": "repeater",
      "lat": 47.4474,
      "lon": -121.751
    },
    {
      "name": "GunnerRepeater",
      "role": "repeater",
      "lat": 47.5462,
      "lon": -122.558
    },
    {
      "name": "HyperServer2",
      "role": "repeater",
      "lat": 47.7096,
      "lon": -122.28
    },
    {
      "name": "BDMESHBUCKLEYTAPPS",
      "role": "repeater",
      "lat": 47.1897,
      "lon": -122.103
    },
    {
      "name": "Alpha_Repeater_2",
      "role": "repeater",
      "lat": 47.9825,
      "lon": -122.132
    },
    {
      "name": "facade00",
      "role": "repeater",
      "lat": 47.6963,
      "lon": -122.341
    },
    {
      "name": "Take_His_Face_Off",
      "role": "repeater",
      "lat": 47.6957,
      "lon": -122.295
    },
    {
      "name": "MALP_Test_Repeater",
      "role": "repeater",
      "lat": 47.1497,
      "lon": -122.342
    },
    {
      "name": "Rainier_View_Chimney",
      "role": "repeater",
      "lat": 47.5033,
      "lon": -122.263
    },
    {
      "name": "N1TJT_Repeater",
      "role": "repeater",
      "lat": 47.6238,
      "lon": -122.316
    },
    {
      "name": "Rainier_View_SolarPt",
      "role": "repeater",
      "lat": 47.502,
      "lon": -122.257
    },
    {
      "name": "FUCK_ICE",
      "role": "repeater",
      "lat": 47.5996,
      "lon": -122.305
    },
    {
      "name": "Hoppy_South_Everett",
      "role": "repeater",
      "lat": 47.9071,
      "lon": -122.201
    },
    {
      "name": "KG7RJJ_Repeater",
      "role": "repeater",
      "lat": 47.666,
      "lon": -122.145
    },
    {
      "name": "N7JMVGGL1RP",
      "role": "repeater",
      "lat": 47.6718,
      "lon": -122.198
    },
    {
      "name": "Breadheads",
      "role": "repeater",
      "lat": 47.6872,
      "lon": -122.376
    },
    {
      "name": "SCMapleMeshRP",
      "role": "repeater",
      "lat": 47.3404,
      "lon": -121.86
    }
  ],
  "topology": {
    "links": [
      {
        "from": "The_Castle_Left_Wing",
        "to": "The_Castle",
        "snr": 75.43,
        "rssi": -38.59,
        "snr_std_dev": 1.0,
        "bidir": true
      },
      {
        "from": "VM__Vashon_Heights_R",
        "to": "VM_N_Vashon_Forest_R",
        "snr": 75.43,
        "rssi": -38.59,
        "snr_std_dev": 1.0,
        "bidir": true
      },
      {
        "from": "Hyper2Server",
        "to": "HyperServer2",
        "snr": 75.43,
        "rssi": -38.59,
        "snr_std_dev": 1.0,
        "bidir": true
      },
      {
        "from": "Lafayeti",
        "to": "Lafayeti_2",
        "snr": 75.43,
        "rssi": -38.59,
        "snr_std_dev": 1.0,
        "bidir": true
      },
      {
        "from": "KG7QIN_R2",
        "to": "KG7QIN_R5",
        "snr": 75.43,
        "rssi": -38.59,
        "snr_std_dev": 1.0,
        "bidir": true
      },
      {
        "from": "Maya_Repeater",
        "to": "Maya_Repeater_3",
        "snr": 75.43,
        "rssi": -38.59,
        "snr_std_dev": 1.0,
        "bidir": true
      },
      {
        "from": "KG7QIN_R5",
        "to": "KG7QIN_R1",
        "snr": 75.43,
        "rssi": -38.59,
        "snr_std_dev": 1.0,
        "bidir": true
      },
      {
        "from": "KG7QIN_R5",
        "to": "KG7QINR_1W",
        "snr": 75.43,
        "rssi": -38.59,
        "snr_std_dev": 1.0,
        "bidir": true
      },
      {
        "from": "Hobo_Reptr_2",
        "to": "Hobo_NE_Oly_1w_Rptr",
        "snr": 75.43,
        "rssi": -38.59,
        "snr_std_dev": 1.0,
        "bidir": true
      },
      {
        "from": "Dupont_Repeater_b",
        "to": "Dupont_Repeater",
        "snr": 75.43,
        "rssi": -38.59,
        "snr_std_dev": 1.0,
        "bidir": true
      },
      {
        "from": "CoR1",
        "to": "CoR2",
        "snr": 75.43,
        "rssi": -38.59,
        "snr_std_dev": 1.0,
        "bidir": true
      },
      {
        "from": "HyperRepeater",
        "to": "HyperServer2",
        "snr": 69.41,
        "rssi": -44.61,
        "snr_std_dev": 1.0,
        "bidir": true
      },
      {
        "from": "LetsMesh_Test_Node",
        "to": "First_Hill_Skyline",
        "snr": 65.89,
        "rssi": -48.13,
        "snr_std_dev": 1.0,
        "bidir": true
      },
      {
        "from": "STOP_FARTING",
        "to": "House_of_HAX_hello",
        "snr": 65.89,
        "rssi": -48.13,
        "snr_std_dev": 1.0,
        "bidir": true
      },
      {
        "from": "rePeter_Griffin",
        "to": "HyperRepeater",
        "snr": 63.39,
        "rssi": -50.63,
        "snr_std_dev": 1.0,
        "bidir": true
      },
      {
        "from": "SolarXaioAdvanced",
        "to": "Helios_Repeater",
        "snr": 61.45,
        "rssi": -52.57,
        "snr_std_dev": 1.0,
        "bidir": true
      },
      {
        "from": "SFF_Repeater",
        "to": "SFF_Repeater_2_2",
        "snr": 58.81,
        "rssi": -55.21,
        "snr_std_dev": 1.0,
        "bidir": true
      },
      {
        "from": "NewmRoom_no_pw",
        "to": "NewmG2_Repeater",
        "snr": 58.8,
        "rssi": -55.22,
        "snr_std_dev": 1.0,
        "bidir": true
      },
      {
        "from": "Climb__Bike_Tacoma",
        "to": "Huson_Sol",
        "snr": 58.8,
        "rssi": -55.22,
        "snr_std_dev": 1.0,
        "bidir": true
      },
      {
        "from": "Climb__Bike_Tacoma",
        "to": "Huson_Sol_3",
        "snr": 58.8,
        "rssi": -55.22,
        "snr_std_dev": 1.0,
        "bidir": true
      },
      {
        "from": "Huson_Sol_Room",
        "to": "Climb__Bike_Tacoma_2",
        "snr": 58.8,
        "rssi": -55.22,
        "snr_std_dev": 1.0,
        "bidir": true
      },
      {
        "from": "Huson_Room",
        "to": "Climb__Bike_Tacoma_2",
        "snr": 58.8,
        "rssi": -55.22,
        "snr_std_dev": 1.0,
        "bidir": true
      },
      {
        "from": "Huson_Sol_2",
        "to": "Climb__Bike_Tacoma_2",
        "snr": 58.8,
        "rssi": -55.22,
        "snr_std_dev": 1.0,
        "bidir": true
      },
      {
        "from": "Echo_Lake",
        "to": "Pachipod",
        "snr": 58.79,
        "rssi": -55.23,
        "snr_std_dev": 1.0,
        "bidir": true
      },
      {
        "from": "Helios_Repeater",
        "to": "ChucksTruckRepeater",
        "snr": 58.77,
        "rssi": -55.25,
        "snr_std_dev": 1.0,
        "bidir": true
      },
      {
        "from": "207Chico",
        "to": "CVMobile",
        "snr": 58.76,
        "rssi": -55.26,
        "snr_std_dev": 1.0,
        "bidir": true
      },
      {
        "from": "KG7QIN_R4",
        "to": "KG7QIN_R1",
        "snr": 58.78,
        "rssi": -55.24,
        "snr_std_dev": 1.0,
        "bidir": true
      },
      {
        "from": "Puyallup_Room",
        "to": "Puyallup_Repeater",
        "snr": 58.69,
        "rssi": -55.33,
        "snr_std_dev": 1.0,
        "bidir": true
      },
      {
        "from": "Hyper2Server",
        "to": "rePeter_Griffin",
        "snr": 58.53,
        "rssi": -55.49,
        "snr_std_dev": 1.0,
        "bidir": true
      },
      {
        "from": "SFF_Repeater_2_2",
        "to": "FSG_Chat",
        "snr": 58.54,
        "rssi": -55.48,
        "snr_std_dev": 1.0,
        "bidir": true
      },
      {
        "from": "Emyippener_Yote",
        "to": "Phinx_Solar_Repeater",
        "snr": 58.09,
        "rssi": -55.93,
        "snr_std_dev": 1.0,
        "bidir": true
      },
      {
        "from": "NWRTSMACKRPTRBlue",
        "to": "NWRTSMACKRPTR1W2",
        "snr": 58.06,
        "rssi": -55.97,
        "snr_std_dev": 1.0,
        "bidir": true
      },
      {
        "from": "dmatestbednode0",
        "to": "usa_narrow_bridge",
        "snr": 57.55,
        "rssi": -56.47,
        "snr_std_dev": 1.0,
        "bidir": true
      },
      {
        "from": "SolarXaioAdvanced",
        "to": "ChucksTruckRepeater",
        "snr": 56.32,
        "rssi": -57.7,
        "snr_std_dev": 1.0,
        "bidir": true
      },
      {
        "from": "1st_Hill_South_Repea",
        "to": "First_Hill_Skyline_2",
        "snr": 55.68,
        "rssi": -58.34,
        "snr_std_dev": 1.0,
        "bidir": true
      },
      {
        "from": "ChucksTruckRepeater",
        "to": "LowLightRelay201",
        "snr": 55.68,
        "rssi": -58.34,
        "snr_std_dev": 1.0,
        "bidir": true
      },
      {
        "from": "TacomaSafety",
        "to": "TacSafe",
        "snr": 55.65,
        "rssi": -58.37,
        "snr_std_dev": 1.0,
        "bidir": true
      },
      {
        "from": "OlympiaIndianCreekMq",
        "to": "Oly_Fence_Post",
        "snr": 55.63,
        "rssi": -58.39,
        "snr_std_dev": 1.0,
        "bidir": true
      },
      {
        "from": "Diru_Creek",
        "to": "MALP_Test_Repeater",
        "snr": 55.64,
        "rssi": -58.38,
        "snr_std_dev": 1.0,
        "bidir": true
      },
      {
        "from": "dmatestbednode0",
        "to": "devhack_Room_Pw_hell",
        "snr": 55.43,
        "rssi": -58.59,
        "snr_std_dev": 1.0,
        "bidir": true
      },
      {
        "from": "GC97_Room_Server",
        "to": "GC97_Arbor_Heights_O",
        "snr": 55.43,
        "rssi": -58.59,
        "snr_std_dev": 1.0,
        "bidir": true
      },
      {
        "from": "C2903TN_T114",
        "to": "C2903TS_V4",
        "snr": 55.43,
        "rssi": -58.59,
        "snr_std_dev": 1.0,
        "bidir": true
      },
      {
        "from": "Emyippener_Yote",
        "to": "Phinx_Helpeater",
        "snr": 55.05,
        "rssi": -58.97,
        "snr_std_dev": 1.0,
        "bidir": true
      },
      {
        "from": "Cisien_Solar_Room",
        "to": "Cisien_Station_Pi",
        "snr": 55.05,
        "rssi": -58.97,
        "snr_std_dev": 1.0,
        "bidir": true
      },
      {
        "from": "HOWL_Repeater_2",
        "to": "Alpha_Repeater_2",
        "snr": 55.06,
        "rssi": -58.96,
        "snr_std_dev": 1.0,
        "bidir": true
      },
      {
        "from": "Cisien_Station_1W",
        "to": "Cisien_Station",
        "snr": 55.05,
        "rssi": -58.97,
        "snr_std_dev": 1.0,
        "bidir": true
      },
      {
        "from": "KG6GXY_Greenwood",
        "to": "Chucks",
        "snr": 54.6,
        "rssi": -59.42,
        "snr_std_dev": 1.0,
        "bidir": true
      },
      {
        "from": "TWT_RepeaterRoom_Ser",
        "to": "TWT_Room_Server",
        "snr": 53.85,
        "rssi": -60.17,
        "snr_std_dev": 1.0,
        "bidir": true
      },
      {
        "from": "Mosswood_Loft",
        "to": "House_of_Yeaves",
        "snr": 53.8,
        "rssi": -60.22,
        "snr_std_dev": 1.0,
        "bidir": true
      },
      {
        "from": "SolarXaioAdvanced",
        "to": "Xtreme_Repeater",
        "snr": 52.82,
        "rssi": -61.2,
        "snr_std_dev": 1.0,
        "bidir": true
      },
      {
        "from": "The_Winchester_Repea",
        "to": "House_of_Yeaves",
        "snr": 52.74,
        "rssi": -61.28,
        "snr_std_dev": 1.0,
        "bidir": true
      },
      {
        "from": "OMTrix",
        "to": "OlyMesh_SE",
        "snr": 52.65,
        "rssi": -61.37,
        "snr_std_dev": 1.0,
        "bidir": true
      },
      {
        "from": "HOWL_Repeater",
        "to": "Alpha_Repeater",
        "snr": 52.53,
        "rssi": -61.5,
        "snr_std_dev": 1.0,
        "bidir": true
      },
      {
        "from": "devhack_Room_Pw_hell",
        "to": "repeather",
        "snr": 52.06,
        "rssi": -61.96,
        "snr_std_dev": 1.0,
        "bidir": true
      },
      {
        "from": "BatBoxRepeater",
        "to": "LowLightRelay201",
        "snr": 51.91,
        "rssi": -62.11,
        "snr_std_dev": 1.0,
        "bidir": true
      },
      {
        "from": "Broadway_Hill_Park",
        "to": "Cap_Hill_Broadway",
        "snr": 51.8,
        "rssi": -62.22,
        "snr_std_dev": 1.0,
        "bidir": true
      },
      {
        "from": "Heltec_v431",
        "to": "Snowy_Pines",
        "snr": 51.6,
        "rssi": -62.42,
        "snr_std_dev": 1.0,
        "bidir": true
      },
      {
        "from": "Snowy_Pines_soon",
        "to": "Snowy_Pines",
        "snr": 51.6,
        "rssi": -62.42,
        "snr_std_dev": 1.0,
        "bidir": true
      },
      {
        "from": "Lost_Lake_Repeater",
        "to": "Lost_Lake_Room",
        "snr": 51.55,
        "rssi": -62.47,
        "snr_std_dev": 1.0,
        "bidir": true
      },
      {
        "from": "Raccoon_Rendezvous__",
        "to": "Snowy_Pines_soon",
        "snr": 51.11,
        "rssi": -62.91,
        "snr_std_dev": 1.0,
        "bidir": true
      },
      {
        "from": "Raccoon_Rendezvous__",
        "to": "Ardmore_NE",
        "snr": 51.11,
        "rssi": -62.91,
        "snr_std_dev": 1.0,
        "bidir": true
      },